SALE TYPE,SOLD DATE,PROPERTY TYPE,ADDRESS,CITY,STATE OR PROVINCE,ZIP OR POSTAL CODE,PRICE,BEDS,BATHS,LOCATION,SQUARE FEET,LOT SIZE,YEAR BUILT,DAYS ON MARKET,$/SQUARE FEET,HOA/MONTH,STATUS,NEXT OPEN HOUSE START TIME,NEXT OPEN HOUSE END TIME,URL,SOURCE,MLS#,FAVORITE,INTERESTED,LATITUDE,LONGITUDE
MLS Listing,,Single Family Residential,108 Marietta Dr,SAN FRANCISCO,CA,94127,1095000,3,2.0,SAN FRANCISCO,1106,2509,1943,10,990,,Active,,,http://www.redfin.com/CA/San-Francisco/108-Marietta-Dr-94127/home/1412362,MLSListings,ML81864123,N,Y,37.7409698,-122.4484268
MLS Listing,,Single Family Residential,111 States St,SAN FRANCISCO,CA,94114,1995000,3,2.5,SAN FRANCISCO,1794,1437,1931,19,1112,,Active,,,http://www.redfin.com/CA/San-Francisco/111-States-St-94114/home/1557402,MLSListings,ML81862760,N,Y,37.7631832,-122.4376521
MLS Listing,,Condo/Co-op,249 Shipley St #2,San Francisco,CA,94107,768000,1,1.5,San Francisco,892,5591,1999,24,861,754,Active,,,http://www.redfin.com/CA/San-Francisco/249-Shipley-94107/unit-2/home/12396891,San Francisco MLS,421593818,N,Y,37.7788907,-122.40378
MLS Listing,,Single Family Residential,669 Marina Blvd,San Francisco,CA,94123,8998000,5,5.0,San Francisco,4752,4944,1931,24,1894,,Active,,,http://www.redfin.com/CA/San-Francisco/669-Marina-Blvd-94123/home/582205,San Francisco MLS,421593475,N,Y,37.8052133,-122.4449164
MLS Listing,,Condo/Co-op,1816 23rd St,San Francisco,CA,94107,899000,2,1.0,San Francisco,1134,6825,1988,25,793,600,Active,,,http://www.redfin.com/CA/San-Francisco/1816-23rd-St-94107/home/1874262,San Francisco MLS,421591828,N,Y,37.7549818,-122.3980981
MLS Listing,,Condo/Co-op,2831 Polk St #1,San Francisco,CA,94109,2250000,2,2.5,San Francisco,1461,,1924,25,1540,538,Active,,,http://www.redfin.com/CA/San-Francisco/2831-Polk-St-94109/unit-1/home/39591886,San Francisco MLS,421592728,N,Y,37.8028958,-122.4234306
MLS Listing,,Single Family Residential,542 27th Ave,SAN FRANCISCO,CA,94121,2995000,3,4.0,SAN FRANCISCO,3810,2400,1999,27,786,,Active,,,http://www.redfin.com/CA/San-Francisco/542-27th-Ave-94121/home/2007755,MLSListings,ML81861532,N,Y,37.7791442,-122.4865593
MLS Listing,,Condo/Co-op,461 2nd St Unit C118,San Francisco,CA,94107,750000,1,1.0,San Francisco,672,56167,1907,27,1116,651,Active,,,http://www.redfin.com/CA/San-Francisco/461-2nd-St-94107/unit-C118/home/1203053,San Francisco MLS,421589274,N,Y,37.783797,-122.3937191
MLS Listing,,Condo/Co-op,253 Oak St,San Francisco,CA,94102,999000,2,1.0,San Francisco,1000,,1912,28,999,315,Active,,,http://www.redfin.com/CA/San-Francisco/253-Oak-St-94102/home/40615584,San Francisco MLS,421591920,N,Y,37.7747818,-122.4234512
MLS Listing,,Condo/Co-op,2000 Ellis St #205,San Francisco,CA,94115,749000,1,1.0,San Francisco,595,8090,2013,42,1259,466,Active,,,http://www.redfin.com/CA/San-Francisco/2000-Ellis-St-94115/unit-205/home/55244549,San Francisco MLS,421587794,N,Y,37.7816364,-122.439602
MLS Listing,,Condo/Co-op,1998 Broadway #807,San Francisco,CA,94109,1350000,2,2.0,San Francisco,1030,15195,1964,54,1311,1288,Active,,,http://www.redfin.com/CA/San-Francisco/1998-Broadway-94109/unit-807/home/1865773,San Francisco MLS,421583886,N,Y,37.7953251,-122.4298254
MLS Listing,,Single Family Residential,618 Mangels Ave,San Francisco,CA,94127,1940000,3,3.0,San Francisco,1920,3746,1912,60,1010,,Active,,,http://www.redfin.com/CA/San-Francisco/618-Mangels-Ave-94127/home/1719034,San Francisco MLS,421582030,N,Y,37.7332736,-122.4516557
MLS Listing,,Condo/Co-op,163 Shipley St,San Francisco,CA,94107,875000,2,1.0,San Francisco,801,10427,1992,68,1092,599,Active,,,http://www.redfin.com/CA/San-Francisco/163-Shipley-94107/home/1950146,San Francisco MLS,421576170,N,Y,37.7805383,-122.4018925
MLS Listing,,Condo/Co-op,248 Myrtle St,San Francisco,CA,94109,775000,2,1.0,San Francisco,975,3828,1900,154,795,461,Active,,,http://www.redfin.com/CA/San-Francisco/248-Myrtle-St-94109/home/1491675,San Francisco MLS,421544867,N,Y,37.7851652,-122.4222724
MLS Listing,,Multi-Family (2-4 Unit),6 Nottingham Pl,San Francisco,CA,94133,2975000,6,,San Francisco,3045,1098,1909,1,977,,Active,,,http://www.redfin.com/CA/San-Francisco/6-Nottingham-Pl-94133/home/1991437,San Francisco MLS,421600988,N,Y,37.7977222,-122.4050535
MLS Listing,,Condo/Co-op,1 Steuart Ln #1604,San Francisco,CA,94105,3535000,2,2.0,San Francisco,1365,,,1,2590,2693,Active,,,http://www.redfin.com/CA/San-Francisco/1-Steuart-Ln-94105/unit-1604/home/176622228,San Francisco MLS,421600252,N,Y,37.7916703,-122.391584
MLS Listing,,Condo/Co-op,1 Steuart Ln #508,San Francisco,CA,94105,1495000,1,1.5,San Francisco,1101,,,1,1358,2633,Active,,,http://www.redfin.com/CA/San-Francisco/1-Steuart-Ln-94105/unit-508/home/176622227,San Francisco MLS,421600406,N,Y,37.7916703,-122.391584
MLS Listing,,Condo/Co-op,1 Steuart Ln #406,San Francisco,CA,94105,1995000,2,2.0,San Francisco,1513,,,1,1319,2726,Active,,,http://www.redfin.com/CA/San-Francisco/1-Steuart-Ln-94105/unit-406/home/176622178,San Francisco MLS,421600443,N,Y,37.7916703,-122.391584
MLS Listing,,Single Family Residential,331 Arguello Blvd,San Francisco,CA,94118,4750000,6,6.0,Presidio Heights,4223,3018,1900,1,1125,,Active,,,http://www.redfin.com/CA/San-Francisco/331-Arguello-Blvd-94118/home/1484453,"bridgeMLS, Bay East AOR, or Contra Costa AOR",40965473,N,Y,37.784435,-122.459429
MLS Listing,,Condo/Co-op,1470 Mcallister St,San Francisco,CA,94115,2495000,3,2.0,San Francisco,2000,2939,2016,1,1248,754,Active,,,http://www.redfin.com/CA/San-Francisco/1470-McAllister-St-94115/home/144063374,San Francisco MLS,421598519,N,Y,37.7782793,-122.4363282
MLS Listing,,Condo/Co-op,170 Pacific Ave #33,San Francisco,CA,94111,1960000,3,3.0,San Francisco,1850,89586,1986,1,1059,98,Active,,,http://www.redfin.com/CA/San-Francisco/170-Pacific-Ave-94111/unit-33/home/102817199,San Francisco MLS,421600912,N,Y,37.798253,-122.399172
MLS Listing,,Condo/Co-op,75 Howard St #1202,San Francisco,CA,94105,4495000,2,2.0,San Francisco,1679,,,1,2677,2764,Active,,,http://www.redfin.com/CA/San-Francisco/75-Howard-St-94105/unit-1202/home/176621968,San Francisco MLS,421600451,N,Y,37.7915968,-122.3915948
MLS Listing,,Single Family Residential,275 Shipley St,San Francisco,CA,94107,4000000,3,3.5,San Francisco,2915,3750,1906,1,1372,,Active,,,http://www.redfin.com/CA/San-Francisco/275-Shipley-94107/home/722683,San Francisco MLS,421596536,N,Y,37.7785007,-122.4043675
MLS Listing,,Condo/Co-op,120 - 122 Coso Ave #120,San Francisco,CA,94110,698000,2,1.0,San Francisco,950,2150,1900,1,735,,Active,October-5-2021 02:00 PM,October-5-2021 03:30 PM,http://www.redfin.com/CA/San-Francisco/120-Coso-Ave-94110/unit-120/home/176621753,San Francisco MLS,421600047,N,Y,37.7457833,-122.4177977
MLS Listing,,Condo/Co-op,120 - 122 Coso Ave #122,San Francisco,CA,94110,849000,2,1.0,San Francisco,1175,2150,1900,1,723,,Active,October-5-2021 02:00 PM,October-5-2021 03:30 PM,http://www.redfin.com/CA/San-Francisco/120-Coso-Ave-94110/unit-122/home/176621706,San Francisco MLS,421600048,N,Y,37.7457833,-122.4177977
MLS Listing,,Multi-Family (2-4 Unit),120 - 122 Coso Ave,San Francisco,CA,94110,1549000,4,,San Francisco,2125,2150,1900,1,729,,Active,October-5-2021 02:00 PM,October-5-2021 03:30 PM,http://www.redfin.com/CA/San-Francisco/120-Coso-Ave-94110/home/1371137,San Francisco MLS,421599354,N,Y,37.7457833,-122.4177977
MLS Listing,,Multi-Family (5+ Unit),916 - 920 Clay St,San Francisco,CA,94108,1850000,0,,San Francisco,3681,1337,1907,1,503,,Active,,,http://www.redfin.com/CA/San-Francisco/916-Clay-St-94108/home/1088750,San Francisco MLS,421599440,N,Y,37.7941745,-122.4082915
MLS Listing,,Condo/Co-op,118 Palm Ave,San Francisco,CA,94118,1195000,2,1.0,San Francisco,1232,4816,1910,1,970,219,Active,October-7-2021 04:30 PM,October-7-2021 06:00 PM,http://www.redfin.com/CA/San-Francisco/118-Palm-Ave-94118/home/1349655,San Francisco MLS,421599508,N,Y,37.78334,-122.457533
MLS Listing,,Single Family Residential,1717 Webster St,San Francisco,CA,94115,2895000,4,2.5,San Francisco,2445,1642,1900,1,1184,,Active,October-5-2021 11:00 AM,October-5-2021 12:30 PM,http://www.redfin.com/CA/San-Francisco/1717-Webster-St-94115/home/1871630,San Francisco MLS,421600861,N,Y,37.7867592,-122.4320039
MLS Listing,,Single Family Residential,38 Stoneyford Ave,San Francisco,CA,94112,949000,2,1.0,San Francisco,862,2352,1942,1,1101,,Active,October-5-2021 02:00 PM,October-5-2021 03:30 PM,http://www.redfin.com/CA/San-Francisco/38-Stoneyford-Ave-94112/home/770944,San Francisco MLS,421600835,N,Y,37.7305112,-122.4211838
MLS Listing,,Condo/Co-op,1503 Waller St,San Francisco,CA,94117,735000,1,1.0,San Francisco,535,2979,1895,1,1374,577,Active,,,http://www.redfin.com/CA/San-Francisco/1503-Waller-St-94117/home/176621127,San Francisco MLS,421600783,N,Y,37.7687425,-122.4487054
MLS Listing,,Condo/Co-op,56 Linda St,San Francisco,CA,94110,699000,1,1.0,Dolores,668,2004,1907,1,1046,225,Active,October-9-2021 01:00 PM,October-9-2021 04:00 PM,http://www.redfin.com/CA/San-Francisco/56-Linda-St-94110/home/110052355,"bridgeMLS, Bay East AOR, or Contra Costa AOR",40969527,N,Y,37.7590642,-122.4228463
MLS Listing,,Condo/Co-op,1101 Green St #603,San Francisco,CA,94109,1150000,1,2.0,San Francisco,918,5279,1928,1,1253,1491,Active,,,http://www.redfin.com/CA/San-Francisco/1101-Green-St-94109/unit-603/home/541969,San Francisco MLS,421596984,N,Y,37.7982681,-122.4174152
MLS Listing,,Single Family Residential,2941 26th Ave,San Francisco,CA,94132,2688000,4,3.0,San Francisco,2700,4399,1934,1,996,,Active,,,http://www.redfin.com/CA/San-Francisco/2941-26th-Ave-94132/home/1966965,San Francisco MLS,421594631,N,Y,37.7335435,-122.4822149
MLS Listing,,Condo/Co-op,2100 Green St #502,San Francisco,CA,94123,2950000,2,2.5,San Francisco,1850,,1927,1,1595,,Active,,,http://www.redfin.com/CA/San-Francisco/2100-Green-St-94123/unit-502/home/12400235,San Francisco MLS,421600806,N,Y,37.7965566,-122.4339526
MLS Listing,,Condo/Co-op,507 Pennsylvania Ave,San Francisco,CA,94107,1725000,3,3.0,San Francisco,1960,1911,1981,1,880,170,Active,October-5-2021 01:00 PM,October-5-2021 06:00 PM,http://www.redfin.com/CA/San-Francisco/507-Pennsylvania-Ave-94107/home/732981,San Francisco MLS,421599268,N,Y,37.760028,-122.393061
MLS Listing,,Single Family Residential,196 Newton St,San Francisco,CA,94112,1195000,2,1.0,San Francisco,1903,2260,1915,1,628,,Active,October-10-2021 02:00 PM,October-10-2021 04:00 PM,http://www.redfin.com/CA/San-Francisco/196-Newton-St-94112/home/796288,San Francisco MLS,421599333,N,Y,37.7121418,-122.4383855
MLS Listing,,Condo/Co-op,155 Hancock St #1,San Francisco,CA,94114,957000,1,1.0,San Francisco,712,4560,1979,1,1344,186,Active,,,http://www.redfin.com/CA/San-Francisco/155-Hancock-St-94114/unit-1/home/1878833,San Francisco MLS,421574748,N,Y,37.7600906,-122.4317736
MLS Listing,,Condo/Co-op,1201 California St #206,San Francisco,CA,94109,589000,0,1.0,San Francisco,,,,1,,500,Active,October-10-2021 10:00 AM,October-10-2021 12:00 PM,http://www.redfin.com/CA/San-Francisco/1201-California-St-94109/unit-206/home/12400743,San Francisco MLS,421575592,N,Y,37.790957,-122.4143844
MLS Listing,,Single Family Residential,774 39th Ave,San Francisco,CA,94121,1450000,3,2.5,San Francisco,1120,3118,1925,1,1295,,Active,October-6-2021 03:00 PM,October-6-2021 04:00 PM,http://www.redfin.com/CA/San-Francisco/774-39th-Ave-94121/home/616993,San Francisco MLS,421600821,N,Y,37.774248,-122.4991491
MLS Listing,,Single Family Residential,1782 Revere Ave,San Francisco,CA,94124,799000,2,1.0,San Francisco,1075,2500,1907,1,743,,Active,,,http://www.redfin.com/CA/San-Francisco/1782-Revere-Ave-94124/home/2005176,San Francisco MLS,421593757,N,Y,37.7337198,-122.393354
MLS Listing,,Condo/Co-op,400 Bristol Ct #107,San Francisco,CA,94130,1156000,1,1.0,San Francisco,898,231763,,1,1287,1308,Active,,,http://www.redfin.com/CA/San-Francisco/1-Yerba-Buena-Rd-94130/unit-107/home/176618802,San Francisco MLS,421600782,N,Y,37.8108709,-122.3668348
MLS Listing,,Condo/Co-op,301 Mission St Unit 15H,San Francisco,CA,94105,775000,1,1.0,San Francisco,773,50667,2009,1,1003,1520,Active,,,http://www.redfin.com/CA/San-Francisco/301-Mission-St-94105/unit-15H/home/40138346,San Francisco MLS,421600781,N,Y,37.7903824,-122.3961531
MLS Listing,,Multi-Family (2-4 Unit),1215 - 1217 Vallejo St,San Francisco,CA,94109,2100000,4,1.0,San Francisco,2792,2339,1908,1,752,,Active,,,http://www.redfin.com/CA/San-Francisco/1215-Vallejo-St-94109/home/2035548,San Francisco MLS,421598573,N,Y,37.7972975,-122.4173541
MLS Listing,,Single Family Residential,3019 Broderick St,San Francisco,CA,94123,2950000,3,2.0,SFO - San Francisco,1827,1934,1938,1,1615,,Active,,,http://www.redfin.com/CA/San-Francisco/3019-Broderick-St-94123/home/1984313,CRMLS,PW21219686,N,Y,37.7981992,-122.4444394
MLS Listing,,Condo/Co-op,590 6th St #303,San Francisco,CA,94103,1299000,2,2.0,San Francisco,1356,13734,2001,1,958,820,Active,October-9-2021 12:00 PM,October-9-2021 02:00 PM,http://www.redfin.com/CA/San-Francisco/590-6th-St-94103/unit-303/home/853378,San Francisco MLS,421600758,N,Y,37.7747537,-122.4014635
MLS Listing,,Condo/Co-op,888 7th St #130,San Francisco,CA,94107,399888,1,1.0,San Francisco,549,95280,2007,1,728,389,Active,,,http://www.redfin.com/CA/San-Francisco/888-7th-St-94107/unit-130/home/22894589,San Francisco MLS,421592179,N,Y,37.7705534,-122.4004057
MLS Listing,,Condo/Co-op,810 Lyon St #2,San Francisco,CA,94115,899000,2,1.0,San Francisco,964,2422,1966,1,933,265,Active,October-5-2021 09:00 AM,October-5-2021 01:00 PM,http://www.redfin.com/CA/San-Francisco/810-Lyon-St-94115/unit-2/home/176618188,San Francisco MLS,421596381,N,Y,37.7785443,-122.4432819
MLS Listing,,Single Family Residential,246 Grand View Ave,San Francisco,CA,94114,2050000,3,4.5,San Francisco,1890,2273,1908,1,1085,,Active,October-5-2021 12:00 PM,October-5-2021 01:30 PM,http://www.redfin.com/CA/San-Francisco/246-Grand-View-Ave-94114/home/674973,San Francisco MLS,421599175,N,Y,37.7543081,-122.4412277
MLS Listing,,Condo/Co-op,2090 Pacific Ave #506,San Francisco,CA,94109,1195000,1,1.0,San Francisco,1050,12215,1928,2,1138,566,Active,,,http://www.redfin.com/CA/San-Francisco/2090-Pacific-Ave-94109/unit-506/home/951314,San Francisco MLS,421594083,N,Y,37.794342,-122.4296436
MLS Listing,,Single Family Residential,160 De Long St,San Francisco,CA,94112,925000,3,2.0,San Francisco,925,2495,1951,2,,,Active,,,http://www.redfin.com/CA/San-Francisco/160-De-Long-St-94112/home/1656358,MetroList,421599628,N,Y,37.7097785,-122.4618367
MLS Listing,,Condo/Co-op,1 Federal St #42,SAN FRANCISCO,CA,94107,768000,1,1.0,SAN FRANCISCO,658,,2003,2,1167,721,Active,,,http://www.redfin.com/CA/San-Francisco/1-Federal-St-94107/unit-42/home/1600192,MLSListings,ML81865233,N,Y,37.7841242,-122.3910528
MLS Listing,,Single Family Residential,55 San Anselmo Ave,San Francisco,CA,94127,2895000,4,3.0,San Francisco,2620,5166,1929,2,1105,202,Active,October-4-2021 05:30 PM,October-4-2021 07:00 PM,http://www.redfin.com/CA/San-Francisco/55-San-Anselmo-Ave-94127/home/1003679,San Francisco MLS,421599367,N,Y,37.7372752,-122.4669585
MLS Listing,,Single Family Residential,67 Mirabel Ave,SAN FRANCISCO,CA,94110,1095000,2,2.0,SAN FRANCISCO,1188,2495,1912,2,922,,Active,,,http://www.redfin.com/CA/San-Francisco/67-Mirabel-Ave-94110/home/1362410,MLSListings,ML81865226,N,Y,37.7468044,-122.4159882
MLS Listing,,Single Family Residential,520 Laidley St,San Francisco,CA,94131,1198000,2,2.0,San Francisco,,3397,1924,2,,,Active,October-5-2021 12:00 PM,October-5-2021 01:30 PM,http://www.redfin.com/CA/San-Francisco/520-Laidley-St-94131/home/1655963,San Francisco MLS,421599509,N,Y,37.7359625,-122.4313617
MLS Listing,,Single Family Residential,947 Edinburgh St,San Francisco,CA,94112,998000,3,3.0,San Francisco,1469,2509,1913,2,679,,Active,October-7-2021 05:00 PM,October-7-2021 06:00 PM,http://www.redfin.com/CA/San-Francisco/947-Edinburgh-St-94112/home/1807920,San Francisco MLS,421600583,N,Y,37.7150527,-122.4363396
MLS Listing,,Single Family Residential,1700 Sloat Blvd,San Francisco,CA,94132,2198000,6,4.5,San Francisco,2496,4412,1949,2,881,,Active,October-5-2021 01:00 PM,October-5-2021 02:30 PM,http://www.redfin.com/CA/San-Francisco/1700-Sloat-Blvd-94116/home/1782192,San Francisco MLS,421599083,N,Y,37.7342557,-122.4915003
MLS Listing,,Single Family Residential,65 Castenada Ave,San Francisco,CA,94116,2250000,3,1.5,San Francisco,2010,10201,1926,2,1119,,Active,,,http://www.redfin.com/CA/San-Francisco/65-Castenada-Ave-94116/home/1486427,San Francisco MLS,421600630,N,Y,37.75001,-122.4618726
MLS Listing,,Condo/Co-op,1300 22nd St #300,San Francisco,CA,94107,1280000,2,2.0,San Francisco,915,32000,2016,2,1399,753,Active,October-5-2021 01:00 PM,October-5-2021 06:00 PM,http://www.redfin.com/CA/San-Francisco/1300-22nd-St-94107/unit-300/home/167315241,San Francisco MLS,421599191,N,Y,37.7578379,-122.3944714
MLS Listing,,Condo/Co-op,200 Brannan St #306,San Francisco,CA,94107,1499000,2,2.0,San Francisco,1525,72899,2004,2,983,885,Active,October-9-2021 01:00 PM,October-9-2021 04:00 PM,http://www.redfin.com/CA/San-Francisco/200-Brannan-St-94107/unit-306/home/1170558,San Francisco MLS,421600557,N,Y,37.7838833,-122.3906104
MLS Listing,,Single Family Residential,19 Riverton Dr,San Francisco,CA,94132,1825000,5,4.0,San Francisco,1924,2495,1949,3,949,,Active,,,http://www.redfin.com/CA/San-Francisco/19-Riverton-Dr-94132/home/1656485,San Francisco MLS,421600250,N,Y,37.7336481,-122.4874325
MLS Listing,,Condo/Co-op,501 Crescent Way #5104,SAN FRANCISCO,CA,94134,738888,2,2.0,SAN FRANCISCO,1054,,2006,3,701,600,Active,,,http://www.redfin.com/CA/San-Francisco/501-Crescent-Way-94134/unit-5104/home/22854830,MLSListings,ML81865209,N,Y,37.7117617,-122.388583
MLS Listing,,Multi-Family (2-4 Unit),384 Park St,San Francisco,CA,94110,1395000,6,4.0,San Francisco,2320,2550,1904,3,601,,Active,October-5-2021 02:00 PM,October-5-2021 03:30 PM,http://www.redfin.com/CA/San-Francisco/384-Park-St-94110/unit-384/home/764384,San Francisco MLS,421599597,N,Y,37.7361504,-122.4172383
MLS Listing,,Condo/Co-op,219 Brannan St Unit 11D,San Francisco,CA,94107,2395000,2,2.0,San Francisco,1395,82966,2000,3,1717,1303,Active,,,http://www.redfin.com/CA/San-Francisco/219-Brannan-St-94107/unit-11D/home/1776754,San Francisco MLS,421599212,N,Y,37.7830623,-122.3901122
MLS Listing,,Condo/Co-op,821 Folsom St #306,San Francisco,CA,94107,995000,2,2.0,San Francisco,1063,,2004,3,936,667,Active,October-6-2021 12:00 PM,October-6-2021 01:30 PM,http://www.redfin.com/CA/San-Francisco/821-Folsom-St-94107/unit-306/home/12401855,San Francisco MLS,421600258,N,Y,37.7814547,-122.4014635
MLS Listing,,Single Family Residential,2561 Chestnut St,San Francisco,CA,94123,1995000,4,2.5,San Francisco,2336,1263,1939,3,854,,Active,,,http://www.redfin.com/CA/San-Francisco/2561-Chestnut-St-94123/home/1898821,San Francisco MLS,421600536,N,Y,37.7995037,-122.4455027
MLS Listing,,Multi-Family (2-4 Unit),634 - 636 Church St,San Francisco,CA,94114,2495000,4,2.0,San Francisco,2948,2500,1941,3,846,,Active,,,http://www.redfin.com/CA/San-Francisco/634-Church-St-94114/home/710302,San Francisco MLS,421600546,N,Y,37.760739,-122.4286182
MLS Listing,,Single Family Residential,1850 19th Ave,San Francisco,CA,94122,998000,4,3.0,San Francisco,1439,2250,1906,3,694,,Active,October-5-2021 12:00 PM,October-5-2021 01:00 PM,http://www.redfin.com/CA/San-Francisco/1850-19th-Ave-94122/home/933383,San Francisco MLS,421600389,N,Y,37.7532986,-122.4759508
MLS Listing,,Condo/Co-op,118 Corwin St,San Francisco,CA,94114,1695000,2,2.0,San Francisco,1705,3003,1989,3,994,120,Active,October-5-2021 12:00 PM,October-5-2021 01:30 PM,http://www.redfin.com/CA/San-Francisco/118-Corwin-St-94114/home/1541663,San Francisco MLS,421598612,N,Y,37.7576059,-122.4404991
MLS Listing,,Single Family Residential,109 Porter St,San Francisco,CA,94110,1648000,3,4.0,San Francisco,1720,1746,,3,958,,Active,,,http://www.redfin.com/CA/San-Francisco/109-Porter-St-94110/home/1559033,San Francisco MLS,421600517,N,Y,37.7338199,-122.4180347
MLS Listing,,Condo/Co-op,3141 Gough St,San Francisco,CA,94123,3650000,4,2.5,San Francisco,2210,2812,1923,3,1652,577,Active,,,http://www.redfin.com/CA/San-Francisco/3141-Gough-St-94123/home/55244644,San Francisco MLS,421600435,N,Y,37.8024115,-122.4284225
MLS Listing,,Single Family Residential,251 Hartford St,San Francisco,CA,94114,2699000,3,3.0,San Francisco,,3125,1890,3,,,Active,,,http://www.redfin.com/CA/San-Francisco/251-Hartford-St-94114/unit-251A/home/712540,San Francisco MLS,421600498,N,Y,37.758574,-122.433349
MLS Listing,,Condo/Co-op,338 Spear St Unit 17C,San Francisco,CA,94105,1250000,1,1.0,San Francisco,,76210,2009,3,,76,Active,,,http://www.redfin.com/CA/San-Francisco/338-Spear-St-94105/unit-17C/home/23424171,San Francisco MLS,421599602,N,Y,37.7894137,-122.3906433
MLS Listing,,Condo/Co-op,1731 Larkin St #6,San Francisco,CA,94109,1650000,2,2.0,San Francisco,,,,3,,426,Active,October-5-2021 09:00 AM,October-5-2021 10:30 AM,http://www.redfin.com/CA/San-Francisco/1731-Larkin-St-94109/unit-6/home/86348881,San Francisco MLS,421599809,N,Y,37.7938586,-122.4199766
MLS Listing,,Condo/Co-op,786 Minna St #3,San Francisco,CA,94103,1100000,2,2.0,San Francisco,1200,4887,1999,3,917,498,Active,October-6-2021 12:00 PM,October-6-2021 01:30 PM,http://www.redfin.com/CA/San-Francisco/786-Minna-St-94103/unit-3/home/12395751,San Francisco MLS,421600246,N,Y,37.7761928,-122.4139198
MLS Listing,,Multi-Family (2-4 Unit),1319 Dolores St,San Francisco,CA,94110,2500000,4,2.0,San Francisco,1900,2374,1900,3,1316,,Active,October-5-2021 12:00 PM,October-5-2021 01:30 PM,http://www.redfin.com/CA/San-Francisco/1319-Dolores-St-94110/home/1990694,BAREIS,421598666,N,Y,37.7483183,-122.4245385
MLS Listing,,Single Family Residential,272 Oneida Ave,SAN FRANCISCO,CA,94112,1099000,3,1.0,SAN FRANCISCO,1058,1999,1929,3,1039,,Active,,,http://www.redfin.com/CA/San-Francisco/272-Oneida-Ave-94112/home/814773,MLSListings,ML81865131,N,Y,37.7222116,-122.4432183
MLS Listing,,Multi-Family (2-4 Unit),2908 Folsom St,San Francisco,CA,94110,1595000,4,4.0,San Francisco,1835,2757,1900,3,869,,Active,October-5-2021 02:00 PM,October-5-2021 03:30 PM,http://www.redfin.com/CA/San-Francisco/2908-Folsom-St-94110/home/1720904,San Francisco MLS,421594828,N,Y,37.7506438,-122.4142185
MLS Listing,,Condo/Co-op,3075 California St,San Francisco,CA,94115,1599000,3,2.0,San Francisco,1888,2502,1900,3,847,500,Active,,,http://www.redfin.com/CA/San-Francisco/3075-California-St-94115/home/1754373,San Francisco MLS,421599153,N,Y,37.787241,-122.444909
MLS Listing,,Single Family Residential,7949 Geary Blvd,San Francisco,CA,94121,2998888,6,3.5,San Francisco,3576,7050,1924,3,839,,Active,October-5-2021 11:00 AM,October-5-2021 12:30 PM,http://www.redfin.com/CA/San-Francisco/7949-Geary-Blvd-94121/home/1872512,San Francisco MLS,421600384,N,Y,37.7789382,-122.504808
MLS Listing,,Condo/Co-op,112 Arguello Blvd #2,San Francisco,CA,94118,1249000,2,1.0,San Francisco,,2674,1926,3,,364,Active,,,http://www.redfin.com/CA/San-Francisco/112-Arguello-Blvd-94118/unit-2/home/12353730,San Francisco MLS,421600230,N,Y,37.7881863,-122.4589978
MLS Listing,,Single Family Residential,1359 41st Ave,San Francisco,CA,94122,1495000,3,2.0,San Francisco,1991,,1947,3,751,,Active,October-5-2021 01:00 PM,October-5-2021 02:30 PM,http://www.redfin.com/CA/San-Francisco/1359-41st-Ave-94122/home/1436413,San Francisco MLS,421599790,N,Y,37.7614007,-122.5008733
MLS Listing,,Single Family Residential,858 37th Ave,San Francisco,CA,94121,2750000,6,3.5,San Francisco,3260,3000,1925,3,844,,Active,,,http://www.redfin.com/CA/San-Francisco/858-37th-Ave-94121/home/1477003,BAREIS,421599545,N,Y,37.7727574,-122.4969216
MLS Listing,,Condo/Co-op,38 Bryant St #604,San Francisco,CA,94105,1199000,2,2.0,San Francisco,1073,32017,1994,3,1117,769,Active,,,http://www.redfin.com/CA/San-Francisco/38-Bryant-St-94105/unit-604/home/724788,San Francisco MLS,421600371,N,Y,37.7873536,-122.3888066
MLS Listing,,Condo/Co-op,200 Brannan St #422,San Francisco,CA,94107,2349000,2,2.0,San Francisco,1928,72899,2004,3,1218,958,Active,October-10-2021 12:00 PM,October-10-2021 01:00 PM,http://www.redfin.com/CA/San-Francisco/200-Brannan-St-94107/unit-422/home/1224381,San Francisco MLS,421599313,N,Y,37.7838833,-122.3906104
MLS Listing,,Single Family Residential,3134 Baker St,San Francisco,CA,94123,3495000,3,3.0,San Francisco,2905,2344,1926,3,1203,,Active,October-5-2021 04:30 PM,October-5-2021 06:00 PM,http://www.redfin.com/CA/San-Francisco/3134-Baker-St-94123/home/1643160,San Francisco MLS,421599038,N,Y,37.8001017,-122.4460688
MLS Listing,,Single Family Residential,2703 Bush St,San Francisco,CA,94115,2385000,3,2.0,San Francisco,1705,3297,1900,3,1399,,Active,,,http://www.redfin.com/CA/San-Francisco/2703-Bush-St-94115/home/589826,San Francisco MLS,421599260,N,Y,37.7858217,-122.4420643
MLS Listing,,Single Family Residential,4367 21st St,San Francisco,CA,94114,2195000,4,2.5,San Francisco,1885,1537,,3,1164,,Active,October-5-2021 12:00 PM,October-5-2021 01:30 PM,http://www.redfin.com/CA/San-Francisco/4367-21st-St-94114/home/1042881,San Francisco MLS,421600325,N,Y,37.755067,-122.4401404
MLS Listing,,Condo/Co-op,760 12th Ave,San Francisco,CA,94118,1525000,2,2.0,San Francisco,1565,2996,1920,3,974,,Active,October-5-2021 11:00 AM,October-5-2021 12:30 PM,http://www.redfin.com/CA/San-Francisco/760-12th-Ave-94118/home/171948497,San Francisco MLS,421596821,N,Y,37.7739656,-122.4699635
MLS Listing,,Condo/Co-op,2002 3rd St #208,San Francisco,CA,94107,1050000,2,2.0,San Francisco,1358,16636,2002,3,773,690,Active,October-6-2021 02:00 PM,October-6-2021 03:30 PM,http://www.redfin.com/CA/San-Francisco/2002-3rd-St-94107/unit-208/home/12398035,San Francisco MLS,421599969,N,Y,37.763914,-122.3891164
MLS Listing,,Condo/Co-op,3136 Fulton St #1,San Francisco,CA,94118,1825000,4,3.5,San Francisco,2282,2906,2001,3,800,,Active,October-5-2021 11:00 AM,October-5-2021 12:30 PM,http://www.redfin.com/CA/San-Francisco/3136-Fulton-St-94118/unit-1/home/1593431,San Francisco MLS,421589670,N,Y,37.7736806,-122.4655344
MLS Listing,,Condo/Co-op,2006 Steiner St,San Francisco,CA,94115,1350000,2,2.0,San Francisco,1429,1545,,3,945,400,Active,October-5-2021 11:00 AM,October-5-2021 12:30 PM,http://www.redfin.com/CA/San-Francisco/2006-Steiner-St-94115/home/28851698,San Francisco MLS,421599204,N,Y,37.7881203,-122.4352585
MLS Listing,,Condo/Co-op,813 Lyon St #3,San Francisco,CA,94115,1495000,3,2.5,San Francisco,1490,2813,,3,1003,327,Active,October-5-2021 11:00 AM,October-5-2021 12:30 PM,http://www.redfin.com/CA/San-Francisco/813-Lyon-St-94115/unit-3/home/176585856,San Francisco MLS,421599970,N,Y,37.7786056,-122.4438265
MLS Listing,,Single Family Residential,321 Marietta Dr,San Francisco,CA,94127,2599000,5,6.0,San Francisco,3860,,,3,673,,Active,October-5-2021 01:00 PM,October-5-2021 02:30 PM,http://www.redfin.com/CA/San-Francisco/321-Marietta-Dr-94127/home/1725930,San Francisco MLS,421600296,N,Y,37.7393313,-122.4438212
MLS Listing,,Single Family Residential,290 Melrose Ave,San Francisco,CA,94127,1795000,3,2.5,San Francisco,1619,1875,,3,1109,,Active,October-5-2021 01:00 PM,October-5-2021 02:30 PM,http://www.redfin.com/CA/San-Francisco/290-Melrose-Ave-94127/home/1954825,San Francisco MLS,421600220,N,Y,37.7339803,-122.4484821
MLS Listing,,Condo/Co-op,280 Spear St Unit 6H,San Francisco,CA,94105,1649000,3,2.0,San Francisco,1466,47916,,3,1125,1285,Active,,,http://www.redfin.com/CA/San-Francisco/280-Spear-St-94105/unit-6H/home/176585739,San Francisco MLS,421600290,N,Y,37.7904356,-122.3918209
MLS Listing,,Condo/Co-op,2856 Scott St #1,San Francisco,CA,94123,1895000,2,1.0,San Francisco,1479,3795,1926,3,1281,600,Active,October-5-2021 10:00 AM,October-5-2021 11:30 AM,http://www.redfin.com/CA/San-Francisco/2856-Scott-St-94123/unit-1/home/559619,San Francisco MLS,421599371,N,Y,37.7962984,-122.4401376
MLS Listing,,Condo/Co-op,560 Missouri St Unit A,San Francisco,CA,94107,1495000,2,2.5,San Francisco,,2496,2003,3,,300,Active,October-5-2021 02:00 PM,October-5-2021 03:30 PM,http://www.redfin.com/CA/San-Francisco/560-Missouri-St-94107/unit-A/home/1400114,San Francisco MLS,421594822,N,Y,37.7591981,-122.3965293
MLS Listing,,Condo/Co-op,77 Van Ness Ave #408,San Francisco,CA,94102,1279000,2,2.0,San Francisco,1131,13040,2009,3,1131,496,Active,October-5-2021 09:00 PM,October-5-2021 10:30 PM,http://www.redfin.com/CA/San-Francisco/77-Van-Ness-Ave-94102/unit-408/home/40138353,San Francisco MLS,421600207,N,Y,37.7760549,-122.4199372
MLS Listing,,Condo/Co-op,666 Post St #904,San Francisco,CA,94109,715000,1,1.0,San Francisco,775,3783,1926,3,923,934,Active,,,http://www.redfin.com/CA/San-Francisco/666-Post-St-94109/unit-904/home/12400764,San Francisco MLS,421599203,N,Y,37.7878628,-122.4129103
MLS Listing,,Single Family Residential,1030 Le Conte Ave,SAN FRANCISCO,CA,94124,1195000,4,3.0,SAN FRANCISCO,2200,1914,1988,3,543,,Active,,,http://www.redfin.com/CA/San-Francisco/1030-Le-Conte-Ave-94124/home/1193290,MLSListings,ML81865059,N,Y,37.7187582,-122.397005
MLS Listing,,Condo/Co-op,161 Dolores St #3,San Francisco,CA,94103,695000,1,1.0,San Francisco,753,2200,1914,3,923,263,Active,October-5-2021 12:00 PM,October-5-2021 01:30 PM,http://www.redfin.com/CA/San-Francisco/161-Dolores-St-94103/unit-3/home/12353746,San Francisco MLS,421599830,N,Y,37.7668913,-122.4263012
MLS Listing,,Single Family Residential,4163 - 4163A 26th St,San Francisco,CA,94131,5290000,7,7.0,San Francisco,4566,2848,,3,1159,,Active,October-5-2021 12:00 PM,October-5-2021 01:30 PM,http://www.redfin.com/CA/San-Francisco/4163-26th-St-94131/home/1372040,San Francisco MLS,421599824,N,Y,37.7479564,-122.432889
MLS Listing,,Condo/Co-op,247 Connecticut St,San Francisco,CA,94107,895000,2,1.5,San Francisco,958,2500,1908,3,934,275,Active,October-5-2021 02:00 PM,October-5-2021 03:30 PM,http://www.redfin.com/CA/San-Francisco/247-Connecticut-St-94107/home/1706626,San Francisco MLS,421600119,N,Y,37.76314,-122.397242
MLS Listing,,Condo/Co-op,918 Capp St,San Francisco,CA,94110,995000,2,1.0,San Francisco,,3293,1908,3,,382,Active,October-5-2021 02:00 PM,October-5-2021 03:30 PM,http://www.redfin.com/CA/San-Francisco/918-Capp-St-94110/home/69371653,San Francisco MLS,421596814,N,Y,37.7517393,-122.4175787
MLS Listing,,Condo/Co-op,1478 Dolores St,San Francisco,CA,94110,1249000,2,1.0,San Francisco,1361,2491,1925,3,918,,Active,,,http://www.redfin.com/CA/San-Francisco/1478-Dolores-St-94110/home/803680,San Francisco MLS,421600259,N,Y,37.7458106,-122.4249566
MLS Listing,,Condo/Co-op,3131 Pierce St #308,San Francisco,CA,94123,1495000,2,2.0,San Francisco,1044,,2021,3,1432,1056,Active,October-5-2021 10:00 AM,October-5-2021 11:30 AM,http://www.redfin.com/CA/San-Francisco/3131-Pierce-St-94123/unit-308/home/176585256,San Francisco MLS,421600251,N,Y,37.7989774,-122.4394952
MLS Listing,,Single Family Residential,1039 Green St,San Francisco,CA,94133,9500000,5,6.0,San Francisco,5250,3872,1885,3,1810,,Active,,,http://www.redfin.com/CA/San-Francisco/1039-Green-St-94133/home/880477,San Francisco MLS,421600235,N,Y,37.7983967,-122.4162803
MLS Listing,,Condo/Co-op,133 Stoneridge Ln #2207,San Francisco,CA,94134,848000,3,2.0,San Francisco,1588,213611,1994,3,534,616,Active,,,http://www.redfin.com/CA/San-Francisco/133-Stoneridge-Ln-94134/unit-2207/home/1890958,San Francisco MLS,421596611,N,Y,37.71023,-122.426265
MLS Listing,,Single Family Residential,17 Guy Pl,San Francisco,CA,94105,15000000,8,8.5,San Francisco,7680,,2020,3,1953,,Active,,,http://www.redfin.com/CA/San-Francisco/17-Guy-Pl-94105/home/174771827,San Francisco MLS,421600233,N,Y,37.7867293,-122.3938899
MLS Listing,,Condo/Co-op,555 Golden Gate Ave Unit 10F,San Francisco,CA,94103,848000,1,2.0,San Francisco,,,,3,,553,Active,,,http://www.redfin.com/CA/San-Francisco/555-Golden-Gate-Ave-94102/unit-10F/home/176584515,San Francisco MLS,421600221,N,Y,37.7808655,-122.4196054
MLS Listing,,Condo/Co-op,1998 Broadway St #1407,San Francisco,CA,94109,1595000,2,2.0,San Francisco,1030,15195,1964,3,1549,1288,Active,,,http://www.redfin.com/CA/San-Francisco/1998-Broadway-94109/unit-1407/home/1755200,San Francisco MLS,421584970,N,Y,37.7953251,-122.4298254
MLS Listing,,Condo/Co-op,2725 Pine St #2725,San Francisco,CA,94115,1750000,3,1.5,San Francisco,1730,3438,1890,3,1012,375,Active,,,http://www.redfin.com/CA/San-Francisco/2725-Pine-St-94115/unit-2725/home/589266,San Francisco MLS,421599532,N,Y,37.786722,-122.441057
MLS Listing,,Single Family Residential,2027 Noriega St,San Francisco,CA,94127,1195000,3,2.0,San Francisco,1811,2395,1939,3,660,,Active,October-6-2021 05:30 PM,October-6-2021 07:00 PM,http://www.redfin.com/CA/San-Francisco/2027-Noriega-St-94122/home/1270893,San Francisco MLS,421599287,N,Y,37.7536508,-122.4855754
MLS Listing,,Condo/Co-op,2816 21st St,San Francisco,CA,94110,1689000,3,3.0,San Francisco,2210,2596,1910,3,764,504,Active,October-5-2021 02:00 PM,October-5-2021 03:30 PM,http://www.redfin.com/CA/San-Francisco/2816-21st-St-94110/home/175624925,San Francisco MLS,421600200,N,Y,37.7576163,-122.4109079
MLS Listing,,Single Family Residential,2419 17th Ave,San Francisco,CA,94116,1597500,3,2.0,San Francisco,1610,2996,1948,3,992,,Active,October-9-2021 01:00 PM,October-9-2021 04:00 PM,http://www.redfin.com/CA/San-Francisco/2419-17th-Ave-94116/home/2008204,San Francisco MLS,421599646,N,Y,37.7427316,-122.4737876
MLS Listing,,Single Family Residential,22 Granada Ave,San Francisco,CA,94112,959000,3,2.0,San Francisco,1250,2813,1940,3,767,,Active,October-9-2021 02:00 PM,October-9-2021 04:00 PM,http://www.redfin.com/CA/San-Francisco/22-Granada-Ave-94112/home/1713170,San Francisco MLS,421597373,N,Y,37.7186877,-122.4569855
MLS Listing,,Condo/Co-op,743 47th Ave,San Francisco,CA,94121,995000,2,1.0,San Francisco,1278,3571,1906,3,779,200,Active,October-5-2021 11:00 AM,October-5-2021 12:30 PM,http://www.redfin.com/CA/San-Francisco/743-47th-Ave-94121/home/52059338,San Francisco MLS,421598088,N,Y,37.7743987,-122.5082916
MLS Listing,,Multi-Family (2-4 Unit),538 - 540 21st Ave,San Francisco,CA,94121,1595000,4,2.0,San Francisco,3390,2996,1922,3,471,,Active,October-5-2021 11:00 AM,October-5-2021 12:30 PM,http://www.redfin.com/CA/San-Francisco/538-21st-Ave-94121/unit-540/home/2033533,San Francisco MLS,421599680,N,Y,37.7776122,-122.4799252
MLS Listing,,Multi-Family (2-4 Unit),,San Francisco,CA,94118,1998000,3,1.0,San Francisco,2355,3000,,3,848,,Active,,,http://www.redfin.com/CA/San-Francisco/Undisclosed-address-94118/home/2010408,San Francisco MLS,421600185,N,Y,37.7820959,-122.46352
MLS Listing,,Single Family Residential,199 Quintara St,San Francisco,CA,94116,1688000,3,2.0,San Francisco,1872,2900,1940,3,902,,Active,October-5-2021 01:00 PM,October-5-2021 02:30 PM,http://www.redfin.com/CA/San-Francisco/199-Quintara-St-94116/home/1894843,San Francisco MLS,421589951,N,Y,37.7488323,-122.4672681
MLS Listing,,Condo/Co-op,110 Channel St #409,San Francisco,CA,94158,1048000,1,1.0,San Francisco,823,1,2017,3,1273,820,Active,,,http://www.redfin.com/CA/San-Francisco/110-Channel-St-94158/unit-409/home/144781324,San Francisco MLS,508188,N,Y,37.77486,-122.391036
MLS Listing,,Condo/Co-op,1149 Lake St #101,SAN FRANCISCO,CA,94118,2295000,4,3.5,SAN FRANCISCO,2191,,1991,3,1047,250,Active,October-5-2021 11:00 AM,October-5-2021 12:30 PM,http://www.redfin.com/CA/San-Francisco/1149-Lake-St-94118/unit-101/home/1818576,MLSListings,ML81865018,N,Y,37.7861671,-122.4719226
MLS Listing,,Condo/Co-op,1149 Lake St #201,SAN FRANCISCO,CA,94118,1695000,3,2.5,SAN FRANCISCO,1548,,1991,3,1095,250,Active,October-5-2021 11:00 AM,October-5-2021 12:30 PM,http://www.redfin.com/CA/San-Francisco/1149-Lake-St-94118/unit-201/home/1021666,MLSListings,ML81865017,N,Y,37.7861671,-122.4719226
MLS Listing,,Multi-Family (2-4 Unit),2275 Chestnut St,San Francisco,CA,94123,2500000,2,,San Francisco,2983,1036,1914,3,838,,Active,,,http://www.redfin.com/CA/San-Francisco/2275-Chestnut-St-94123/home/176583124,San Francisco MLS,421600000,N,Y,37.8001199,-122.4407389
MLS Listing,,Single Family Residential,2063 20th Ave,San Francisco,CA,94116,1395000,4,2.0,San Francisco,1752,2996,1946,3,796,,Active,October-5-2021 01:00 PM,October-5-2021 02:30 PM,http://www.redfin.com/CA/San-Francisco/2063-20th-Ave-94116/home/1603745,San Francisco MLS,421599227,N,Y,37.7492834,-122.4774945
MLS Listing,,Multi-Family (5+ Unit),2205 Taylor St,San Francisco,CA,94133,2450000,0,,San Francisco,4576,3197,1929,3,535,,Active,,,http://www.redfin.com/CA/San-Francisco/2205-Taylor-St-94133/home/1770217,San Francisco MLS,421599952,N,Y,37.8028452,-122.4149837
MLS Listing,,Condo/Co-op,30 - 34A Wayne Pl Unit 32A,San Francisco,CA,94133,739000,2,1.0,San Francisco,712,,1906,3,1038,295,Active,October-5-2021 09:00 AM,October-5-2021 10:30 AM,http://www.redfin.com/CA/San-Francisco/30-Wayne-Pl-94133/unit-32A/home/176583012,San Francisco MLS,421599761,N,Y,37.7967954,-122.4109333
MLS Listing,,Single Family Residential,14 White St,San Francisco,CA,94109,3750000,3,2.5,San Francisco,2420,1398,,3,1550,,Active,October-5-2021 09:00 AM,October-5-2021 10:30 AM,http://www.redfin.com/CA/San-Francisco/14-White-St-94109/home/920642,San Francisco MLS,421598998,N,Y,37.7975541,-122.4194948
MLS Listing,,Condo/Co-op,302 Coleridge St,San Francisco,CA,94110,899000,2,1.0,San Francisco,,2435,1910,3,,305,Active,October-5-2021 02:00 PM,October-5-2021 03:30 PM,http://www.redfin.com/CA/San-Francisco/302-Coleridge-St-94110/home/143322320,San Francisco MLS,421599269,N,Y,37.7417302,-122.421216
MLS Listing,,Condo/Co-op,35 Dolores St #403,San Francisco,CA,94103,1395000,2,2.0,San Francisco,924,,2015,3,1510,542,Active,October-5-2021 12:00 PM,October-5-2021 01:30 PM,http://www.redfin.com/CA/San-Francisco/35-Dolores-St-94103/unit-403/home/172618433,San Francisco MLS,421547668,N,Y,37.7686054,-122.4265343
MLS Listing,,Single Family Residential,131 Wilmot St,San Francisco,CA,94115,1588000,2,2.5,San Francisco,,757,1900,3,,,Active,October-5-2021 11:00 AM,October-5-2021 12:30 PM,http://www.redfin.com/CA/San-Francisco/131-Wilmot-St-94115/home/1498661,San Francisco MLS,421585967,N,Y,37.7872697,-122.4348363
MLS Listing,,Condo/Co-op,310 Townsend St #409,San Francisco,CA,94107,825000,1,1.0,San Francisco,789,16600,2006,3,1046,528,Active,,,http://www.redfin.com/CA/San-Francisco/310-Townsend-St-94107/unit-409/home/17305525,San Francisco MLS,421597788,N,Y,37.7769445,-122.3956663
MLS Listing,,Condo/Co-op,2687 Pine St,San Francisco,CA,94115,1595000,3,2.0,San Francisco,1491,1876,1900,3,1070,533,Active,,,http://www.redfin.com/CA/San-Francisco/2687-Pine-St-94115/home/109477453,San Francisco MLS,421599584,N,Y,37.7869483,-122.4398596
MLS Listing,,Condo/Co-op,123 4th Ave,San Francisco,CA,94118,2249000,4,3.0,San Francisco,1886,3028,,3,1192,191,Active,October-5-2021 11:00 AM,October-5-2021 12:30 PM,http://www.redfin.com/CA/San-Francisco/123-4th-Ave-94118/home/1346786,San Francisco MLS,421590772,N,Y,37.786269,-122.462842
MLS Listing,,Townhouse,443 Fulton St,San Francisco,CA,94102,1250000,2,1.5,San Francisco,1146,21629,1992,3,1091,678,Active,October-5-2021 11:00 AM,October-5-2021 12:30 PM,http://www.redfin.com/CA/San-Francisco/443-Fulton-St-94102/home/1723831,San Francisco MLS,421595229,N,Y,37.778247,-122.424021
MLS Listing,,Single Family Residential,348 Madison St,San Francisco,CA,94134,1988000,4,3.5,San Francisco,2129,2996,1914,3,934,,Active,,,http://www.redfin.com/CA/San-Francisco/348-Madison-St-94134/home/1345362,San Francisco MLS,421597475,N,Y,37.72471,-122.4223153
MLS Listing,,Condo/Co-op,318 Main St Unit 3H,San Francisco,CA,94105,2050000,2,2.0,San Francisco,1434,75406,2015,3,1430,1261,Active,,,http://www.redfin.com/CA/San-Francisco/318-Main-St-94105/unit-3H/home/109686858,San Francisco MLS,421599908,N,Y,37.7889813,-122.3918869
MLS Listing,,Multi-Family (2-4 Unit),2621 Clement St,San Francisco,CA,94121,1995000,5,4.0,San Francisco,2960,2500,1983,3,674,,Active,,,http://www.redfin.com/CA/San-Francisco/2621-Clement-St-94121/home/1468299,San Francisco MLS,421583846,N,Y,37.7817168,-122.4874768
MLS Listing,,Condo/Co-op,1545 Broadway #103,San Francisco,CA,94109,995000,2,2.0,San Francisco,1160,15611,1980,3,858,450,Active,October-5-2021 09:00 AM,October-5-2021 10:30 AM,http://www.redfin.com/CA/San-Francisco/1545-Broadway-94109/unit-103/home/881250,San Francisco MLS,421600125,N,Y,37.7956766,-122.4223927
MLS Listing,,Single Family Residential,82 Idora Ave,San Francisco,CA,94127,1595000,3,2.0,San Francisco,1828,3100,1928,3,873,,Active,,,http://www.redfin.com/CA/San-Francisco/82-Idora-Ave-94127/home/682493,San Francisco MLS,421599045,N,Y,37.7446089,-122.4560787
MLS Listing,,Condo/Co-op,630 Natoma St #2,San Francisco,CA,94103,1498000,2,2.5,San Francisco,,,2019,3,,500,Active,,,http://www.redfin.com/CA/San-Francisco/630-Natoma-St-94103/unit-2/home/168161118,San Francisco MLS,421598166,N,Y,37.7779331,-122.4107954
MLS Listing,,Condo/Co-op,1485 Church St #1,San Francisco,CA,94131,699000,1,1.0,San Francisco,,2375,1913,3,,225,Active,October-5-2021 12:00 PM,October-5-2021 01:30 PM,http://www.redfin.com/CA/San-Francisco/1485-Church-St-94131/unit-1/home/22044567,San Francisco MLS,421599121,N,Y,37.7471785,-122.4267618
MLS Listing,,Condo/Co-op,404 Diamond St,San Francisco,CA,94114,995000,2,1.0,San Francisco,973,1381,1924,3,1023,345,Active,October-5-2021 12:00 PM,October-5-2021 01:30 PM,http://www.redfin.com/CA/San-Francisco/404-Diamond-St-94114/home/11743565,San Francisco MLS,421591806,N,Y,37.7558193,-122.4369475
MLS Listing,,Condo/Co-op,201 Folsom St Unit 23H,San Francisco,CA,94105,1150000,1,1.0,San Francisco,851,75406,2016,3,1351,1158,Active,,,http://www.redfin.com/CA/San-Francisco/201-Folsom-St-94105/unit-23H/home/144064128,San Francisco MLS,421596219,N,Y,37.7891848,-122.3919008
MLS Listing,,Single Family Residential,2072 Ocean Ave,San Francisco,CA,94127,1095000,3,2.0,San Francisco,1402,2047,1938,3,781,,Active,October-5-2021 01:00 PM,October-5-2021 02:30 PM,http://www.redfin.com/CA/San-Francisco/2072-Ocean-Ave-94127/home/699525,San Francisco MLS,421598693,N,Y,37.7267565,-122.4655986
MLS Listing,,Condo/Co-op,1160 Mission St #1208,San Francisco,CA,94103,1199000,2,2.0,San Francisco,1201,,2008,3,998,1007,Active,,,http://www.redfin.com/CA/San-Francisco/1160-Mission-St-94103/unit-1208/home/17305338,San Francisco MLS,421581093,N,Y,37.7786972,-122.4126145
MLS Listing,,Condo/Co-op,8 Buchanan St Unit 605,SAN FRANCISCO,CA,94102,1343000,2,2.0,SAN FRANCISCO,1150,,2014,3,1168,685,Active,October-5-2021 11:00 AM,October-5-2021 12:30 PM,http://www.redfin.com/CA/San-Francisco/8-Buchanan-St-94102/unit-605/home/110051456,MLSListings,ML81865008,N,Y,37.7699851,-122.4265079
MLS Listing,,Condo/Co-op,181 Lower Ter,San Francisco,CA,94114,1695000,2,2.5,San Francisco,1509,2194,2003,3,1123,197,Active,,,http://www.redfin.com/CA/San-Francisco/181-Lower-Ter-94114/home/69371257,San Francisco MLS,421598306,N,Y,37.7631709,-122.4433964
MLS Listing,,Condo/Co-op,901 Bush St #602,San Francisco,CA,94109,525000,1,1.0,San Francisco,414,4727,1909,4,1268,453,Active,,,http://www.redfin.com/CA/San-Francisco/901-Bush-St-94109/unit-602/home/23423946,San Francisco MLS,421599374,N,Y,37.7895319,-122.4122348
MLS Listing,,Multi-Family (2-4 Unit),1854 - 1856 Jefferson St,San Francisco,CA,94123,2950000,5,,San Francisco,4020,3235,1926,4,734,,Active,,,http://www.redfin.com/CA/San-Francisco/1854-Jefferson-St-94123/home/1090187,San Francisco MLS,421599370,N,Y,37.8050009,-122.4431278
MLS Listing,,Condo/Co-op,420 North Mission Bay Blvd #1202,San Francisco,CA,94158,2300000,2,2.0,San Francisco,1492,122891,2012,4,1542,,Active,,,http://www.redfin.com/CA/San-Francisco/420-Mission-Bay-Blvd-N-94158/unit-1202/home/40625992,San Francisco MLS,421599674,N,Y,37.7713412,-122.3880486
MLS Listing,,Condo/Co-op,2 Fallon Pl #1,San Francisco,CA,94133,675000,1,1.0,San Francisco,665,21960,1980,4,1015,746,Active,,,http://www.redfin.com/CA/San-Francisco/2-Fallon-Pl-94133/unit-1/home/1365592,San Francisco MLS,421600117,N,Y,37.797786,-122.4132891
MLS Listing,,Single Family Residential,2730 43rd Ave,SAN FRANCISCO,CA,94116,1495000,4,2.0,SAN FRANCISCO,1985,3000,1948,4,753,,Active,,,http://www.redfin.com/CA/San-Francisco/2730-43rd-Ave-94116/home/666285,MLSListings,ML81864987,N,Y,37.7358603,-122.5007784
MLS Listing,,Condo/Co-op,2246 15th St,San Francisco,CA,94114,1449000,2,1.0,San Francisco,1277,5325,1901,4,1135,759,Active,,,http://www.redfin.com/CA/San-Francisco/2246-15th-St-94114/home/27984434,San Francisco MLS,421600015,N,Y,37.7660467,-122.4343596
MLS Listing,,Single Family Residential,436 Lansdale Ave,SAN FRANCISCO,CA,94127,1399000,3,2.5,SAN FRANCISCO,1604,4795,1956,4,872,,Active,,,http://www.redfin.com/CA/San-Francisco/436-Lansdale-Ave-94127/home/944824,MLSListings,ML81864977,N,Y,37.7359709,-122.4560787
MLS Listing,,Single Family Residential,20 Mclaren Ave,San Francisco,CA,94121,5700000,4,5.0,San Francisco,4135,5919,1928,4,1378,,Active,October-5-2021 11:00 AM,October-5-2021 12:30 PM,http://www.redfin.com/CA/San-Francisco/20-McLaren-Ave-94121/home/1051248,San Francisco MLS,421599712,N,Y,37.7865532,-122.4888032
MLS Listing,,Condo/Co-op,1461 Broadway St #203,San Francisco,CA,94109,899000,2,2.0,San Francisco,925,11174,1981,4,972,737,Active,,,http://www.redfin.com/CA/San-Francisco/1461-Broadway-94109/unit-203/home/1909433,San Francisco MLS,421599392,N,Y,37.7957055,-122.4213309
MLS Listing,,Condo/Co-op,240 Lombard St #833,San Francisco,CA,94111,655000,1,1.0,San Francisco,582,,1993,4,1125,952,Active,,,http://www.redfin.com/CA/San-Francisco/240-Lombard-St-94111/unit-833/home/542389,San Francisco MLS,421600091,N,Y,37.8040758,-122.4052486
MLS Listing,,Condo/Co-op,1370 Mcallister St,San Francisco,CA,94115,1150000,4,1.0,San Francisco,1540,2500,1900,4,747,,Active,,,http://www.redfin.com/CA/San-Francisco/1370-McAllister-St-94115/home/28935660,San Francisco MLS,421600098,N,Y,37.778508,-122.434575
MLS Listing,,Condo/Co-op,1591 Jackson St #502,San Francisco,CA,94109,979000,1,1.0,San Francisco,907,,1986,4,1079,742,Active,,,http://www.redfin.com/CA/San-Francisco/1591-Jackson-St-94109/unit-502/home/1708128,San Francisco MLS,421600035,N,Y,37.7939575,-122.4210895
MLS Listing,,Condo/Co-op,530 Chestnut St Unit C206,San Francisco,CA,94131,1195000,2,2.0,San Francisco,,,,4,,786,Active,,,http://www.redfin.com/CA/San-Francisco/530-Chestnut-St-94133/unit-C206/home/174012897,San Francisco MLS,421596495,N,Y,37.8042321,-122.4124817
MLS Listing,,Condo/Co-op,454 Lombard St #8,San Francisco,CA,94133,800000,1,1.0,San Francisco,730,4400,1974,4,1096,753,Active,,,http://www.redfin.com/CA/San-Francisco/454-Lombard-St-94133/unit-8/home/543211,San Francisco MLS,421600041,N,Y,37.8034567,-122.4091388
MLS Listing,,Single Family Residential,837 Moultrie St,San Francisco,CA,94110,1295000,2,1.0,San Francisco,1532,1750,1936,4,845,,Active,October-7-2021 05:00 PM,October-7-2021 06:00 PM,http://www.redfin.com/CA/San-Francisco/837-Moultrie-St-94110/home/975128,San Francisco MLS,421596638,N,Y,37.7341957,-122.4160547
MLS Listing,,Condo/Co-op,1282 Hayes St #201,San Francisco,CA,94117,1100000,1,1.0,San Francisco,,2025,,4,,762,Active,October-5-2021 11:00 AM,October-5-2021 12:30 PM,http://www.redfin.com/CA/San-Francisco/1282-Hayes-St-94117/unit-201/home/176580054,San Francisco MLS,421600056,N,Y,37.7752239,-122.4372796
MLS Listing,,Condo/Co-op,1521 Sutter St #306,San Francisco,CA,94109,997000,2,2.0,San Francisco,997,10328,2008,4,1000,522,Active,,,http://www.redfin.com/CA/San-Francisco/1521-Sutter-St-94109/unit-306/home/23455122,San Francisco MLS,421599188,N,Y,37.786732,-122.4259523
MLS Listing,,Condo/Co-op,955 South Van Ness Ave,San Francisco,CA,94110,2749000,4,4.0,San Francisco,3125,3430,1900,4,880,,Active,October-5-2021 02:00 PM,October-5-2021 03:30 PM,http://www.redfin.com/CA/San-Francisco/955-S-Van-Ness-Ave-94110/home/714362,San Francisco MLS,421599530,N,Y,37.7579026,-122.4164344
MLS Listing,,Single Family Residential,70 Gold Mine Dr,San Francisco,CA,94131,3400000,4,4.0,San Francisco,3477,3053,1895,4,978,,Active,October-7-2021 05:30 PM,October-7-2021 07:00 PM,http://www.redfin.com/CA/San-Francisco/70-Gold-Mine-Dr-94131/home/103688463,San Francisco MLS,421599168,N,Y,37.7440453,-122.4373393
MLS Listing,,Multi-Family (2-4 Unit),117 Prospect Ave,San Francisco,CA,94110,1600000,3,2.0,San Francisco,1870,1750,1900,4,856,,Active,,,http://www.redfin.com/CA/San-Francisco/117-Prospect-Ave-94110/unit-117A/home/1231968,San Francisco MLS,421597265,N,Y,37.7431933,-122.4187094
MLS Listing,,Condo/Co-op,504 46th Ave,San Francisco,CA,94121,995000,3,2.0,San Francisco,1420,1750,1948,4,701,100,Active,,,http://www.redfin.com/CA/San-Francisco/504-46th-Ave-94121/home/1306290,San Francisco MLS,421599461,N,Y,37.778801,-122.5070626
MLS Listing,,Condo/Co-op,39 Boardman Pl #101,San Francisco,CA,94103,948000,1,1.5,San Francisco,1281,6048,1996,4,740,625,Active,,,http://www.redfin.com/CA/San-Francisco/39-Boardman-Pl-94103/unit-101/home/1933626,San Francisco MLS,421600016,N,Y,37.7747653,-122.4028796
MLS Listing,,Condo/Co-op,350 Broderick St #303,San Francisco,CA,94117,1195000,2,2.0,San Francisco,1071,49213,2007,4,1116,553,Active,October-5-2021 11:00 AM,October-5-2021 12:30 PM,http://www.redfin.com/CA/San-Francisco/350-Broderick-St-94117/unit-303/home/14884579,San Francisco MLS,421599490,N,Y,37.7734043,-122.4389454
MLS Listing,,Condo/Co-op,1082 De Haro St,San Francisco,CA,94107,1749000,4,3.0,San Francisco,1924,2506,1986,4,909,135,Active,,,http://www.redfin.com/CA/San-Francisco/1082-De-Haro-St-94107/home/1094331,San Francisco MLS,421599278,N,Y,37.756079,-122.401077
MLS Listing,,Condo/Co-op,1523 Franklin St,San Francisco,CA,94109,2988000,3,3.0,San Francisco,2177,,2021,4,1373,1185,Active,,,http://www.redfin.com/CA/San-Francisco/1523-Franklin-St-94109/unit-04/home/175549007,San Francisco MLS,421599772,N,Y,37.7886202,-122.4239241
MLS Listing,,Condo/Co-op,1042 Pine St,San Francisco,CA,94109,1595000,3,1.5,San Francisco,1355,3437,1909,4,1177,353,Active,,,http://www.redfin.com/CA/San-Francisco/1042-Pine-St-94109/home/28597916,San Francisco MLS,421599864,N,Y,37.7908158,-122.413031
MLS Listing,,Single Family Residential,28 Hill Point Ave,San Francisco,CA,94117,2595000,3,2.0,San Francisco,,,1917,4,,,Active,October-5-2021 12:00 PM,October-5-2021 01:00 PM,http://www.redfin.com/CA/San-Francisco/28-Hill-Point-Ave-94117/home/601642,San Francisco MLS,421599339,N,Y,37.7644914,-122.4556007
MLS Listing,,Condo/Co-op,1501 Greenwich St #501,San Francisco,CA,94123,2095000,3,2.5,San Francisco,1642,12161,2008,4,1276,951,Active,,,http://www.redfin.com/CA/San-Francisco/1501-Greenwich-St-94123/unit-501/home/23424017,San Francisco MLS,421599037,N,Y,37.8002186,-122.4246967
MLS Listing,,Single Family Residential,479 Naples St,San Francisco,CA,94112,1399000,3,2.0,San Francisco,3373,5000,1909,4,415,,Active,October-5-2021 02:00 PM,October-5-2021 03:30 PM,http://www.redfin.com/CA/San-Francisco/479-Naples-St-94112/home/780532,San Francisco MLS,421599449,N,Y,37.7211395,-122.4306881
MLS Listing,,Condo/Co-op,1075 Market St #202,San Francisco,CA,94103,330163,1,1.0,City,648,,2018,4,510,738,Active,,,http://www.redfin.com/CA/San-Francisco/1075-Market-St-94103/unit-202/home/169571383,"bridgeMLS, Bay East AOR, or Contra Costa AOR",40969082,N,Y,37.7808152,-122.4117362
MLS Listing,,Condo/Co-op,3376 22nd St,San Francisco,CA,94110,1279000,3,1.5,San Francisco,1350,2850,1907,4,947,,Active,October-5-2021 12:00 PM,October-5-2021 01:30 PM,http://www.redfin.com/CA/San-Francisco/3376-22nd-St-94110/home/176578580,San Francisco MLS,421571588,N,Y,37.7553914,-122.4226196
MLS Listing,,Single Family Residential,143 Brighton Ave,SAN FRANCISCO,CA,94112,799000,3,1.0,SAN FRANCISCO,870,2825,1906,4,918,,Active,,,http://www.redfin.com/CA/San-Francisco/143-Brighton-Ave-94112/home/1283664,MLSListings,ML81864929,N,Y,37.7208466,-122.4553764
MLS Listing,,Multi-Family (2-4 Unit),1743 - 1745 Revere Ave,San Francisco,CA,94124,1649000,7,5.0,San Francisco,3433,2500,2002,4,480,,Active,October-5-2021 02:00 PM,October-5-2021 03:30 PM,http://www.redfin.com/CA/San-Francisco/1743-Revere-Ave-94124/unit-1745/home/845595,San Francisco MLS,421597212,N,Y,37.7329943,-122.3930397
MLS Listing,,Single Family Residential,32 Rio Verde St,Daly City,CA,94014,1588000,3,3.0,Daly City,2034,2631,2021,4,781,,Active,,,http://www.redfin.com/CA/Daly-City/32-Rio-Verde-St-94014/home/175857075,San Francisco MLS,421599880,N,Y,37.708131,-122.415623
MLS Listing,,Single Family Residential,222 Maynard St,San Francisco,CA,94112,1295000,3,2.0,San Francisco,1968,2750,1927,4,658,,Active,October-5-2021 02:00 PM,October-5-2021 03:30 PM,http://www.redfin.com/CA/San-Francisco/222-Maynard-St-94112/home/1868876,San Francisco MLS,421599945,N,Y,37.7293038,-122.4254738
MLS Listing,,Single Family Residential,797 Carolina St,San Francisco,CA,94107,1695000,3,2.0,San Francisco,,2896,1956,4,,,Active,,,http://www.redfin.com/CA/San-Francisco/797-Carolina-St-94107/home/1281802,San Francisco MLS,421598900,N,Y,37.7585673,-122.3997683
MLS Listing,,Condo/Co-op,180 7th St #205,San Francisco,CA,94103,595000,1,1.0,San Francisco,690,11374,1992,4,862,639,Active,October-9-2021 02:00 PM,October-9-2021 04:00 PM,http://www.redfin.com/CA/San-Francisco/180-7th-St-94103/unit-205/home/718632,San Francisco MLS,421598830,N,Y,37.7782055,-122.4100783
MLS Listing,,Single Family Residential,27 States St,San Francisco,CA,94114,1295000,2,2.0,San Francisco,1024,2613,1910,4,1265,,Active,,,http://www.redfin.com/CA/San-Francisco/27-States-St-94114/home/1927812,San Francisco MLS,421599925,N,Y,37.7632771,-122.435966
MLS Listing,,Single Family Residential,2446 41st Ave,SAN FRANCISCO,CA,94116,1188000,3,2.0,SAN FRANCISCO,1214,2996,1945,4,979,,Active,,,http://www.redfin.com/CA/San-Francisco/2446-41st-Ave-94116/home/1271260,MLSListings,ML81864910,N,Y,37.7411327,-122.4990165
MLS Listing,,Multi-Family (2-4 Unit),15 - 17 Hemway Ter,San Francisco,CA,94117,1995000,6,1.0,San Francisco,2916,2664,1913,4,684,,Active,October-5-2021 11:00 AM,October-5-2021 12:30 PM,http://www.redfin.com/CA/San-Francisco/15-Hemway-Ter-94117/home/1888469,San Francisco MLS,421590918,N,Y,37.7759026,-122.4484327
MLS Listing,,Condo/Co-op,651 Central Ave,San Francisco,CA,94117,995000,2,1.0,San Francisco,1020,1614,1900,4,975,250,Active,October-5-2021 11:00 AM,October-5-2021 12:30 PM,http://www.redfin.com/CA/San-Francisco/651-Central-Ave-94117/home/176577195,San Francisco MLS,421598645,N,Y,37.7757658,-122.444925
MLS Listing,,Multi-Family (2-4 Unit),813 - 817 Chenery St,San Francisco,CA,94131,1795000,9,,San Francisco,3120,2500,,4,575,,Active,,,http://www.redfin.com/CA/San-Francisco/813-Chenery-St-94131/home/2019989,San Francisco MLS,421596866,N,Y,37.7346615,-122.4359294
MLS Listing,,Single Family Residential,1883 33rd Ave,San Francisco,CA,94122,1500000,2,1.0,San Francisco,1225,3000,1941,4,1224,,Active,,,http://www.redfin.com/CA/San-Francisco/1883-33rd-Ave-94122/home/644928,San Francisco MLS,421599870,N,Y,37.7520577,-122.4915888
MLS Listing,,Condo/Co-op,1900 Broadway #3,San Francisco,CA,94109,1895000,2,1.5,San Francisco,1331,3765,1920,4,1424,806,Active,October-7-2021 05:30 PM,October-7-2021 06:30 PM,http://www.redfin.com/CA/San-Francisco/1900-Broadway-94109/unit-3/home/1277581,San Francisco MLS,421583235,N,Y,37.7953105,-122.4285424
MLS Listing,,Single Family Residential,270 Minerva St,San Francisco,CA,94112,1350000,4,3.0,Ocean View,1743,3123,1941,4,775,,Active,October-9-2021 01:00 PM,October-9-2021 04:00 PM,http://www.redfin.com/CA/San-Francisco/270-Minerva-St-94112/home/1372523,"bridgeMLS, Bay East AOR, or Contra Costa AOR",40969058,N,Y,37.7158965,-122.4616515
MLS Listing,,Condo/Co-op,67 Hallam St,San Francisco,CA,94103,725000,2,1.0,San Francisco,638,1849,1990,4,1136,125,Active,October-9-2021 12:00 PM,October-9-2021 02:00 PM,http://www.redfin.com/CA/San-Francisco/67-Hallam-St-94103/home/1575401,San Francisco MLS,421599492,N,Y,37.7754961,-122.4079678
MLS Listing,,Condo/Co-op,1456 Chestnut St #2,San Francisco,CA,94123,2595000,3,2.0,San Francisco,1685,3437,2013,4,1540,968,Active,,,http://www.redfin.com/CA/San-Francisco/1456-Chestnut-St-94123/unit-2/home/45354171,San Francisco MLS,421598678,N,Y,37.8021271,-122.42737
MLS Listing,,Condo/Co-op,401 Harrison St Unit 9A,San Francisco,CA,94105,1025000,1,1.0,San Francisco,840,,2014,4,1220,1292,Active,,,http://www.redfin.com/CA/San-Francisco/401-Harrison-St-94105/unit-9A/home/144063877,San Francisco MLS,421599780,N,Y,37.7863747,-122.3919931
MLS Listing,,Single Family Residential,2179 47th Ave,San Francisco,CA,94116,1195000,3,2.0,San Francisco,1611,2996,1946,4,742,,Active,October-5-2021 01:00 PM,October-5-2021 02:30 PM,http://www.redfin.com/CA/San-Francisco/2179-47th-Ave-94116/home/1211267,San Francisco MLS,421598841,N,Y,37.7458643,-122.5062116
MLS Listing,,Multi-Family (2-4 Unit),1350 - 1352 16th Ave,San Francisco,CA,94122,1500000,4,,San Francisco,2700,3188,1925,4,556,,Active,,,http://www.redfin.com/CA/San-Francisco/1350-16th-Ave-94122/home/1652266,San Francisco MLS,421599798,N,Y,37.7627786,-122.4735062
MLS Listing,,Single Family Residential,398 Santa Ana Ave,San Francisco,CA,94127,1598000,4,4.0,San Francisco,3280,3781,1937,4,487,28,Active,,,http://www.redfin.com/CA/San-Francisco/398-Santa-Ana-Ave-94127/home/1175477,San Francisco MLS,421598996,N,Y,37.7298796,-122.4687275
MLS Listing,,Condo/Co-op,300 3rd St #720,San Francisco,CA,94107,1175000,2,2.0,San Francisco,1161,,1990,4,1012,895,Active,October-4-2021 05:00 PM,October-4-2021 06:00 PM,http://www.redfin.com/CA/San-Francisco/300-3rd-St-94107/unit-720/home/1679314,San Francisco MLS,421599542,N,Y,37.783575,-122.3989455
MLS Listing,,Condo/Co-op,2628 Laguna St,San Francisco,CA,94123,2495000,3,2.5,San Francisco,2225,2449,1900,4,1121,750,Active,October-5-2021 10:00 AM,October-5-2021 11:30 PM,http://www.redfin.com/CA/San-Francisco/2628-Laguna-St-94123/home/1312595,San Francisco MLS,421599040,N,Y,37.795761,-122.429869
MLS Listing,,Single Family Residential,251 Ward St,San Francisco,CA,94134,1300000,4,2.5,San Francisco,1680,2247,1908,4,774,,Active,,,http://www.redfin.com/CA/San-Francisco/251-Ward-St-94134/home/780055,San Francisco MLS,421599723,N,Y,37.7183673,-122.4028575
MLS Listing,,Single Family Residential,1308 Anza St,San Francisco,CA,94118,1350000,2,2.0,San Francisco,1450,1875,,4,931,,Active,,,http://www.redfin.com/CA/San-Francisco/1308-Anza-St-94118/home/614933,San Francisco MLS,421599777,N,Y,37.7793821,-122.4623038
MLS Listing,,Condo/Co-op,258 Guerrero,San Francisco,CA,94103,1349000,3,1.5,Mission,1430,,1906,4,943,380,Active,October-5-2021 09:00 AM,October-5-2021 12:00 PM,http://www.redfin.com/CA/San-Francisco/258-Guerrero-St-94103/home/12384848,"bridgeMLS, Bay East AOR, or Contra Costa AOR",40969111,N,Y,37.7670455,-122.4245046
MLS Listing,,Condo/Co-op,40 Levant St,San Francisco,CA,94114,1599000,3,2.0,Corona Hts,1252,,1965,4,1277,,Active,October-9-2021 02:00 PM,October-9-2021 04:00 PM,http://www.redfin.com/CA/San-Francisco/40-Levant-St-94114/home/1894996,"bridgeMLS, Bay East AOR, or Contra Costa AOR",40968865,N,Y,37.764439,-122.44256
MLS Listing,,Single Family Residential,1425 Lincoln Way,San Francisco,CA,94122,1380000,4,3.0,San Francisco,1968,2495,1920,4,701,,Active,,,http://www.redfin.com/CA/San-Francisco/1425-Lincoln-Way-94122/home/2000028,San Francisco MLS,421599498,N,Y,37.7654293,-122.4734589
MLS Listing,,Single Family Residential,203 9th Ave,San Francisco,CA,94118,1350000,4,4.5,San Francisco,1415,810,1912,4,954,,Active,October-9-2021 01:00 PM,October-9-2021 04:00 PM,http://www.redfin.com/CA/San-Francisco/203-9th-Ave-94118/home/1420055,San Francisco MLS,421599372,N,Y,37.7845286,-122.4679425
MLS Listing,,Condo/Co-op,1145 Green St #1,San Francisco,CA,94109,799000,1,1.0,San Francisco,,4498,1915,4,,601,Active,October-5-2021 09:00 AM,October-5-2021 10:30 AM,http://www.redfin.com/CA/San-Francisco/1145-Green-St-94109/unit-1/home/28890599,San Francisco MLS,421599725,N,Y,37.798084,-122.418039
MLS Listing,,Condo/Co-op,229 Dorado Ter,San Francisco,CA,94112,1049000,3,2.0,San Francisco,1398,1994,1990,4,750,375,Active,October-5-2021 01:00 PM,October-5-2021 02:30 PM,http://www.redfin.com/CA/San-Francisco/229-Dorado-Ter-94112/home/864784,San Francisco MLS,421598562,N,Y,37.7261593,-122.4616679
MLS Listing,,Multi-Family (2-4 Unit),1924 - 1926 22nd St,San Francisco,CA,94107,1250000,1,,San Francisco,1152,994,1927,4,1085,,Active,,,http://www.redfin.com/CA/San-Francisco/1924-22nd-St-94107/home/52059306,San Francisco MLS,421599735,N,Y,37.7573339,-122.4004671
MLS Listing,,Single Family Residential,45 Farnum St,San Francisco,CA,94131,1595000,3,2.0,San Francisco,1387,2504,1950,4,1150,,Active,October-5-2021 12:00 PM,October-5-2021 01:30 PM,http://www.redfin.com/CA/San-Francisco/45-Farnum-St-94131/home/844876,San Francisco MLS,421585279,N,Y,37.7396177,-122.434183
MLS Listing,,Single Family Residential,3 Laussat St,San Francisco,CA,94102,1595000,2,2.0,San Francisco,1555,1097,1924,4,1026,,Active,October-5-2021 11:00 AM,October-5-2021 12:30 PM,http://www.redfin.com/CA/San-Francisco/3-Laussat-St-94102/home/1963794,San Francisco MLS,421599411,N,Y,37.7719444,-122.4273407
MLS Listing,,Single Family Residential,1360 11th Ave,San Francisco,CA,94122,2495000,3,2.5,San Francisco,2065,2996,1912,4,1208,,Active,,,http://www.redfin.com/CA/San-Francisco/1360-11th-Ave-94122/home/1368158,San Francisco MLS,421598517,N,Y,37.7628588,-122.4681637
MLS Listing,,Condo/Co-op,1 3rd Ave,San Francisco,CA,94118,1995000,2,2.5,San Francisco,1905,4181,1913,4,1047,805,Active,,,http://www.redfin.com/CA/San-Francisco/1-3rd-Ave-94118/home/1128234,San Francisco MLS,421598642,N,Y,37.787079,-122.4616733
MLS Listing,,Single Family Residential,1550 38th Ave,San Francisco,CA,94112,1195000,2,1.0,San Francisco,1650,2996,1939,4,724,,Active,,,http://www.redfin.com/CA/San-Francisco/1550-38th-Ave-94122/home/883954,San Francisco MLS,421598653,N,Y,37.7579901,-122.4968501
MLS Listing,,Single Family Residential,150 24th Ave,San Francisco,CA,94121,4500000,4,3.0,San Francisco,3870,3149,1912,4,1163,,Active,,,http://www.redfin.com/CA/San-Francisco/150-24th-Ave-94121/home/1847018,San Francisco MLS,421599186,N,Y,37.7865076,-122.4838826
MLS Listing,,Multi-Family (2-4 Unit),2034 - 2036 Greenwich St,San Francisco,CA,94123,3450000,0,,San Francisco,2910,1500,,4,1186,,Active,,,http://www.redfin.com/CA/San-Francisco/2034-Greenwich-St-94123/home/1514492,San Francisco MLS,421598561,N,Y,37.7994603,-122.4332882
MLS Listing,,Condo/Co-op,1458 Broadway #2,San Francisco,CA,94109,2500000,3,2.0,San Francisco,,5019,,4,,769,Active,,,http://www.redfin.com/CA/San-Francisco/1458-Broadway-94109/unit-2/home/176570923,San Francisco MLS,421590442,N,Y,37.7962764,-122.4211966
MLS Listing,,Condo/Co-op,1412 Jackson St,San Francisco,CA,94109,2399000,3,2.0,San Francisco,1980,3094,1908,4,1212,302,Active,October-4-2021 05:30 PM,October-4-2021 07:00 PM,http://www.redfin.com/CA/San-Francisco/1412-Jackson-St-94109/home/546319,San Francisco MLS,421598597,N,Y,37.7947831,-122.4185027
MLS Listing,,Single Family Residential,367 Prentiss St,San Francisco,CA,94110,1475000,3,1.0,San Francisco,1150,1750,1909,4,1283,,Active,October-5-2021 02:00 PM,October-5-2021 03:30 PM,http://www.redfin.com/CA/San-Francisco/367-Prentiss-St-94110/home/763231,San Francisco MLS,421598218,N,Y,37.738831,-122.4119397
MLS Listing,,Condo/Co-op,219 Brannan St Unit 5C,San Francisco,CA,94107,950000,1,1.5,San Francisco,905,82966,2000,4,1050,1204,Active,October-6-2021 12:00 PM,October-6-2021 01:00 PM,http://www.redfin.com/CA/San-Francisco/219-Brannan-St-94107/unit-5C/home/846409,San Francisco MLS,421584482,N,Y,37.7830623,-122.3901122
MLS Listing,,Condo/Co-op,2036 Greenwich St,San Francisco,CA,94123,1295000,2,1.0,San Francisco,1225,1500,1924,4,1057,,Active,,,http://www.redfin.com/CA/San-Francisco/2036-Greenwich-St-94123/home/176570922,San Francisco MLS,421598541,N,Y,37.799388,-122.4333164
MLS Listing,,Single Family Residential,627 Congo St,San Francisco,CA,94131,1095000,2,1.0,San Francisco,1100,2308,1941,4,995,,Active,October-5-2021 12:00 PM,October-5-2021 01:30 PM,http://www.redfin.com/CA/San-Francisco/627-Congo-St-94131/home/2021905,San Francisco MLS,421598578,N,Y,37.734784,-122.4421788
MLS Listing,,Condo/Co-op,200 Townsend St #31,San Francisco,CA,94107,850000,1,2.0,San Francisco,,,2003,4,,624,Active,,,http://www.redfin.com/CA/San-Francisco/200-Townsend-St-94107/unit-31/home/2067394,San Francisco MLS,421585720,N,Y,37.7789208,-122.3932323
MLS Listing,,Single Family Residential,3900 San Bruno Ave,San Francisco,CA,94134,699888,2,1.0,San Francisco,763,1498,1951,4,917,,Active,,,http://www.redfin.com/CA/San-Francisco/3900-San-Bruno-Ave-94134/home/1204684,San Francisco MLS,421599539,N,Y,37.7147062,-122.4015852
MLS Listing,,Condo/Co-op,329 Prospect Ave,San Francisco,CA,94110,1195000,2,2.0,San Francisco,987,,1911,4,1211,300,Active,October-5-2021 02:00 PM,October-5-2021 03:30 PM,http://www.redfin.com/CA/San-Francisco/329-Prospect-Ave-94110/home/1583506,San Francisco MLS,421599218,N,Y,37.7408696,-122.4201869
MLS Listing,,Condo/Co-op,435 China Basin St #430,San Francisco,CA,94158,1650000,2,2.0,San Francisco,1318,122891,2012,4,1252,893,Active,,,http://www.redfin.com/CA/San-Francisco/435-China-Basin-St-94158/unit-430/home/40629280,BAREIS,421599161,N,Y,37.7718864,-122.3885728
MLS Listing,,Condo/Co-op,1760 Ofarrell St #18,San Francisco,CA,94115,998000,2,2.0,San Francisco,1061,22344,1984,4,941,570,Active,,,http://www.redfin.com/CA/San-Francisco/1760-O-Farrell-St-94115/unit-18/home/1991827,San Francisco MLS,421599285,N,Y,37.7833903,-122.4337537
MLS Listing,,Condo/Co-op,855 Folsom St #734,San Francisco,CA,94107,899000,1,1.5,San Francisco,1035,55687,2001,4,869,682,Active,October-6-2021 12:00 PM,October-6-2021 01:30 PM,http://www.redfin.com/CA/San-Francisco/855-Folsom-St-94107/unit-734/home/12397881,San Francisco MLS,421598046,N,Y,37.7810381,-122.4022553
MLS Listing,,Single Family Residential,1958 30th Ave,San Francisco,CA,94116,1195000,3,2.0,San Francisco,1512,2996,1940,5,790,,Active,,,http://www.redfin.com/CA/San-Francisco/1958-30th-Ave-94116/home/645619,San Francisco MLS,421599647,N,Y,37.7507866,-122.4878102
MLS Listing,,Condo/Co-op,342 Hayes St Unit B,San Francisco,CA,94102,1360000,2,2.5,San Francisco,1136,6000,1996,5,1197,707,Active,October-5-2021 01:30 PM,October-5-2021 03:00 PM,http://www.redfin.com/CA/San-Francisco/342-Hayes-St-94102/unit-B/home/578629,San Francisco MLS,421599645,N,Y,37.7772472,-122.4221849
MLS Listing,,Single Family Residential,1248 Stanyan St,San Francisco,CA,94117,2995000,5,2.0,San Francisco,2929,3907,1890,5,1023,,Active,October-9-2021 11:00 AM,October-9-2021 01:00 PM,http://www.redfin.com/CA/San-Francisco/1248-Stanyan-St-94117/home/1040807,San Francisco MLS,421575631,N,Y,37.7608453,-122.4515562
MLS Listing,,Multi-Family (2-4 Unit),1379 - 1381 7th Ave,San Francisco,CA,94122,2625000,3,,San Francisco,3900,2996,1978,5,673,,Active,,,http://www.redfin.com/CA/San-Francisco/1379-7th-Ave-94122/home/21858074,San Francisco MLS,421599640,N,Y,37.7626878,-122.4642237
MLS Listing,,Multi-Family (2-4 Unit),1880 - 1882 9th Ave,San Francisco,CA,94122,2750000,6,,San Francisco,3370,2495,1974,5,816,,Active,,,http://www.redfin.com/CA/San-Francisco/1880-9th-Ave-94122/home/1485318,San Francisco MLS,421599535,N,Y,37.753215,-122.465264
MLS Listing,,Single Family Residential,143 Park St,San Francisco,CA,94110,1595000,2,2.0,San Francisco,1653,2495,1906,5,965,,Active,,,http://www.redfin.com/CA/San-Francisco/143-Park-St-94110/home/1961382,BAREIS,421598259,N,Y,37.7367893,-122.4225808
MLS Listing,,Condo/Co-op,1633 Mcallister St,San Francisco,CA,94115,2199000,3,3.5,San Francisco,1680,3437,2016,5,1309,432,Active,October-5-2021 11:00 AM,October-5-2021 12:30 PM,http://www.redfin.com/CA/San-Francisco/1633-McAllister-St-94115/home/109028751,San Francisco MLS,421599217,N,Y,37.7774253,-122.4390804
MLS Listing,,Multi-Family (2-4 Unit),1501 Taraval St,San Francisco,CA,94116,2400000,2,2.0,San Francisco,5414,3250,1925,5,443,,Active,,,http://www.redfin.com/CA/San-Francisco/1501-Taraval-St-94116/home/176568629,San Francisco MLS,421599198,N,Y,37.7426533,-122.4822623
MLS Listing,,Condo/Co-op,1080 Sutter St #404,San Francisco,CA,94109,446479,3,2.0,San Francisco,1226,7000,2014,5,364,869,Active,,,http://www.redfin.com/CA/San-Francisco/1080-Sutter-St-94109/unit-404/home/69054921,San Francisco MLS,421599526,N,Y,37.788251,-122.418101
MLS Listing,,Condo/Co-op,927 Alabama St,San Francisco,CA,94110,1299000,11,6.0,San Francisco,5896,3497,1904,5,,717,Active,,,http://www.redfin.com/CA/San-Francisco/927-Alabama-St-94110/home/1971191,MetroList,421599533,N,Y,37.7569537,-122.4110957
MLS Listing,,Single Family Residential,835 Darien Way,San Francisco,CA,94127,2895000,5,4.0,San Francisco,3327,4303,1927,5,870,,Active,October-5-2021 01:00 PM,October-5-2021 02:30 PM,http://www.redfin.com/CA/San-Francisco/835-Darien-Way-94127/home/1814032,San Francisco MLS,421598742,N,Y,37.7297818,-122.4627571
MLS Listing,,Condo/Co-op,481 Fulton St,San Francisco,CA,94102,650000,2,1.0,San Francisco,693,2186,1909,5,938,350,Active,,,http://www.redfin.com/CA/San-Francisco/481-Fulton-St-94102/home/176567567,San Francisco MLS,421599453,N,Y,37.7783076,-122.4246256
MLS Listing,,Single Family Residential,94 Keystone Way,San Francisco,CA,94127,1800000,4,2.0,San Francisco,1978,2861,1928,5,910,,Active,,,http://www.redfin.com/CA/San-Francisco/94-Keystone-Way-94127/home/701950,San Francisco MLS,421599510,N,Y,37.7278018,-122.462536
MLS Listing,,Multi-Family (2-4 Unit),22 - 22-1/2 30th St,San Francisco,CA,94110,899000,2,,San Francisco,1604,801,1907,5,560,,Active,,,http://www.redfin.com/CA/San-Francisco/2-30th-St-94110/home/176567319,San Francisco MLS,421598849,N,Y,37.7423869,-122.4219821
MLS Listing,,Single Family Residential,239 Somerset St,San Francisco,CA,94134,1388888,3,1.0,San Francisco,1449,2996,1941,5,959,,Active,October-10-2021 01:00 PM,October-10-2021 03:00 PM,http://www.redfin.com/CA/San-Francisco/239-Somerset-St-94134/home/777774,San Francisco MLS,421599491,N,Y,37.7285724,-122.4081456
MLS Listing,,Single Family Residential,4551 18th St,San Francisco,CA,94114,1195000,5,1.5,San Francisco,2136,3025,1879,5,559,,Active,October-4-2021 04:00 PM,October-4-2021 07:00 PM,http://www.redfin.com/CA/San-Francisco/4551-18th-St-94114/home/1710302,San Francisco MLS,421598813,N,Y,37.7603017,-122.4404661
MLS Listing,,Condo/Co-op,450 Hayes St Unit 3C,San Francisco,CA,94102,998000,1,1.0,San Francisco,,17406,2016,5,,721,Active,October-5-2021 11:00 AM,October-5-2021 12:30 PM,http://www.redfin.com/CA/San-Francisco/450-Hayes-St-94102/unit-3C/home/144063619,San Francisco MLS,421595506,N,Y,37.7768993,-122.4240297
MLS Listing,,Condo/Co-op,260 King St #953,San Francisco,CA,94107,649000,1,1.0,San Francisco,628,,2004,5,1033,811,Active,October-6-2021 12:00 PM,October-6-2021 01:30 PM,http://www.redfin.com/CA/San-Francisco/260-King-St-94107/unit-953/home/11282430,San Francisco MLS,421575846,N,Y,37.7776624,-122.3938672
MLS Listing,,Condo/Co-op,2200 Sacramento St #905,SAN FRANCISCO,CA,94115,1298000,1,2.0,SAN FRANCISCO,828,,1964,5,1568,723,Active,,,http://www.redfin.com/CA/San-Francisco/2200-Sacramento-St-94115/unit-905/home/1523032,MLSListings,ML81864684,N,Y,37.7906708,-122.4294715
MLS Listing,,Condo/Co-op,3312 Scott St,San Francisco,CA,94123,1995000,3,2.0,San Francisco,1887,2525,1925,5,1057,300,Active,October-7-2021 05:00 PM,October-7-2021 06:30 PM,http://www.redfin.com/CA/San-Francisco/3312-Scott-St-94123/home/1957688,San Francisco MLS,421599316,N,Y,37.80049,-122.440942
MLS Listing,,Condo/Co-op,1300 22nd St #208,San Francisco,CA,94107,1495000,2,2.0,San Francisco,1237,32000,2016,5,1209,875,Active,October-5-2021 01:00 PM,October-5-2021 06:00 PM,http://www.redfin.com/CA/San-Francisco/1300-22nd-St-94107/unit-208/home/167315222,San Francisco MLS,421596905,N,Y,37.7578379,-122.3944714
MLS Listing,,Multi-Family (2-4 Unit),1409 - 1411 34th Ave,San Francisco,CA,94122,1095000,4,2.0,San Francisco,2250,1438,1945,5,487,,Active,,,http://www.redfin.com/CA/San-Francisco/1409-34th-Ave-94122/home/629362,San Francisco MLS,421599300,N,Y,37.7607015,-122.493269
MLS Listing,,Condo/Co-op,1345 16th Ave #4,San Francisco,CA,94122,649000,1,1.0,San Francisco,,6000,1924,5,,300,Active,October-5-2021 01:00 PM,October-5-2021 03:00 PM,http://www.redfin.com/CA/San-Francisco/1345-16th-Ave-94122/unit-4/home/171998718,San Francisco MLS,421597494,N,Y,37.7628409,-122.4741597
MLS Listing,,Condo/Co-op,560 Wisconsin St,San Francisco,CA,94107,1089000,2,2.0,San Francisco,1150,79531,1978,5,947,936,Active,October-5-2021 02:00 PM,October-5-2021 03:30 PM,http://www.redfin.com/CA/San-Francisco/560-Wisconsin-St-94107/home/1335661,San Francisco MLS,421593079,N,Y,37.7603947,-122.399545
MLS Listing,,Condo/Co-op,2131 Vallejo St #3,San Francisco,CA,94123,1295000,2,1.0,San Francisco,1100,2619,1900,5,1177,246,Active,,,http://www.redfin.com/CA/San-Francisco/2131-Vallejo-St-94123/unit-3/home/1522821,San Francisco MLS,421591986,N,Y,37.7952976,-122.4329022
MLS Listing,,Condo/Co-op,201 Harrison St #1026,San Francisco,CA,94105,798000,1,1.0,San Francisco,742,38449,1991,5,1075,659,Active,,,http://www.redfin.com/CA/San-Francisco/201-Harrison-St-94105/unit-1026/home/1922378,San Francisco MLS,421597017,N,Y,37.7874798,-122.3905769
MLS Listing,,Condo/Co-op,219 Brannan St Unit 4G,San Francisco,CA,94105,2495000,3,3.0,San Francisco,1685,82966,2000,5,1481,1378,Active,,,http://www.redfin.com/CA/San-Francisco/219-Brannan-St-94107/unit-4G/home/1473379,San Francisco MLS,421599283,N,Y,37.7830623,-122.3901122
MLS Listing,,Condo/Co-op,451 Kansas St #478,San Francisco,CA,94107,799000,1,1.0,San Francisco,667,80311,2007,6,1198,556,Active,,,http://www.redfin.com/CA/San-Francisco/451-Kansas-St-94107/unit-478/home/23424611,San Francisco MLS,421599244,N,Y,37.7637484,-122.4027468
MLS Listing,,Single Family Residential,3030 Castro St,San Francisco,CA,94131,1450000,3,1.0,San Francisco,1000,2299,1900,6,1450,,Active,,,http://www.redfin.com/CA/San-Francisco/3030-Castro-St-94131/home/1177555,BAREIS,421598300,N,Y,37.7354017,-122.4326346
MLS Listing,,Single Family Residential,15 Belle Ave,San Francisco,CA,94132,998000,3,2.0,San Francisco,1219,2495,1961,6,819,,Active,,,http://www.redfin.com/CA/San-Francisco/15-Belle-Ave-94132/home/1195779,San Francisco MLS,421598713,N,Y,37.7085667,-122.469612
MLS Listing,,Condo/Co-op,742 Haight St,San Francisco,CA,94117,1649000,3,1.5,San Francisco,2106,2750,1900,6,783,506,Active,,,http://www.redfin.com/CA/San-Francisco/742-Haight-St-94117/home/11743249,San Francisco MLS,421599147,N,Y,37.771841,-122.43449
MLS Listing,,Condo/Co-op,260 King St #729,San Francisco,CA,94107,599990,0,1.0,Mission,600,,2004,6,1000,799,Active,,,http://www.redfin.com/CA/San-Francisco/260-King-St-94107/unit-729/home/8191031,"bridgeMLS, Bay East AOR, or Contra Costa AOR",40968878,N,Y,37.7776624,-122.3938672
MLS Listing,,Single Family Residential,159 Orsi Cir,San Francisco,CA,94124,1198000,4,3.0,San Francisco,1626,1500,1998,6,737,21,Active,,,http://www.redfin.com/CA/San-Francisco/159-Orsi-Cir-94124/home/752228,San Francisco MLS,421598999,N,Y,37.7277673,-122.3972706
MLS Listing,,Condo/Co-op,891 Carolina St,San Francisco,CA,94107,2200000,3,2.5,San Francisco,,2495,,6,,,Active,October-5-2021 02:00 PM,October-5-2021 03:30 PM,http://www.redfin.com/CA/San-Francisco/891-Carolina-St-94107/home/732200,San Francisco MLS,421598805,N,Y,37.7574618,-122.3997266
MLS Listing,,Condo/Co-op,1200 California St Unit 19B,San Francisco,CA,94109,2850000,2,2.0,San Francisco,1800,,,6,1583,2600,Active,,,http://www.redfin.com/CA/San-Francisco/1200-California-St-94109/unit-19B/home/12400732,San Francisco MLS,421598524,N,Y,37.7917486,-122.4144729
MLS Listing,,Condo/Co-op,1650 Jackson St #704,San Francisco,CA,94109,998000,1,1.0,San Francisco,875,14631,1991,6,1141,834,Active,,,http://www.redfin.com/CA/San-Francisco/1650-Jackson-St-94109/unit-704/home/1731259,San Francisco MLS,421590826,N,Y,37.7942661,-122.42226
MLS Listing,,Condo/Co-op,2225 23rd St #402,San Francisco,CA,94107,648000,1,1.0,San Francisco,602,80224,1989,6,1076,583,Active,,,http://www.redfin.com/CA/San-Francisco/2225-23rd-St-94107/unit-402/home/1841773,"bridgeMLS, Bay East AOR, or Contra Costa AOR",40968829,N,Y,37.7543499,-122.4022071
MLS Listing,,Multi-Family (2-4 Unit),474 Frederick St,San Francisco,CA,94117,2495000,5,3.0,San Francisco,2615,3436,1900,7,954,,Active,October-5-2021 12:00 PM,October-5-2021 01:30 PM,http://www.redfin.com/CA/San-Francisco/474-Frederick-St-94117/home/1953814,San Francisco MLS,421598975,N,Y,37.7666148,-122.4522268
MLS Listing,,Vacant Land,337 Mullen Ave,San Francisco,CA,94110,400000,0,,San Francisco,,2099,,7,,,Active,,,http://www.redfin.com/CA/San-Francisco/337-Mullen-Ave-94110/unit-V/home/110063664,San Francisco MLS,421598963,N,Y,37.746355,-122.405753
MLS Listing,,Condo/Co-op,1 Hawthorne St Unit 14A,San Francisco,CA,94105,975000,1,1.0,San Francisco,909,12409,2010,7,1073,1260,Active,,,http://www.redfin.com/CA/San-Francisco/1-Hawthorne-St-94105/unit-14A/home/69371162,San Francisco MLS,421598926,N,Y,37.7857425,-122.3988969
MLS Listing,,Multi-Family (2-4 Unit),638 Rhode Island St,SAN FRANCISCO,CA,94107,1980000,5,4.0,SAN FRANCISCO,2663,2495,1911,7,744,,Active,,,http://www.redfin.com/CA/San-Francisco/638-Rhode-Island-St-94107/home/731039,MLSListings,ML81864463,N,Y,37.7616915,-122.4025633
MLS Listing,,Condo/Co-op,1515 15th St #503,SAN FRANCISCO,CA,94103,775000,1,1.0,SAN FRANCISCO,650,14125,2014,7,1192,558,Active,,,http://www.redfin.com/CA/San-Francisco/1515-15th-St-94103/unit-503/home/108273181,MLSListings,ML81864456,N,Y,37.7665977,-122.4181501
MLS Listing,,Multi-Family (2-4 Unit),383 - 385 S Van Ness Ave,San Francisco,CA,94103,2490000,5,2.0,San Francisco,2200,3746,,7,,,Active,,,http://www.redfin.com/CA/San-Francisco/383-S-Van-Ness-Ave-94103/home/110058599,MetroList,421598857,N,Y,37.7671747,-122.4173188
MLS Listing,,Multi-Family (2-4 Unit),164 - 168 28th St,San Francisco,CA,94131,2000000,7,2.0,San Francisco,2709,2850,1905,7,,,Active,,,http://www.redfin.com/CA/San-Francisco/164-28th-St-94131/unit-168/home/2034900,MetroList,421597432,N,Y,37.7454879,-122.4261455
MLS Listing,,Multi-Family (2-4 Unit),810 - 812 Taraval St,San Francisco,CA,94116,1975000,10,8.0,San Francisco,5800,2500,,7,341,,Active,,,http://www.redfin.com/CA/San-Francisco/810-Taraval-St-94116/home/656030,San Francisco MLS,421598826,N,Y,37.7433331,-122.4749298
MLS Listing,,Multi-Family (5+ Unit),3181 - 3185 San Jose Ave,San Francisco,CA,94112,1699000,4,4.0,San Francisco,3710,3741,1929,7,458,,Active,,,http://www.redfin.com/CA/San-Francisco/3181-San-Jose-Ave-94112/home/1940718,San Francisco MLS,421598792,N,Y,37.7084773,-122.4583947
MLS Listing,,Condo/Co-op,651 14th Ave,San Francisco,CA,94118,1595000,3,2.0,San Francisco,1860,3188,1921,7,858,150,Active,October-4-2021 05:00 PM,October-4-2021 06:00 PM,http://www.redfin.com/CA/San-Francisco/651-14th-Ave-94118/home/1643916,San Francisco MLS,421597849,N,Y,37.775858,-122.47285
MLS Listing,,Single Family Residential,225 Cresta Vista Dr,San Francisco,CA,94127,1495000,2,1.5,San Francisco,1305,2696,1967,7,1146,2,Active,,,http://www.redfin.com/CA/San-Francisco/225-Cresta-Vista-Dr-94127/home/685974,San Francisco MLS,421598744,N,Y,37.7358108,-122.4546634
MLS Listing,,Condo/Co-op,537 Natoma St #202,SAN FRANCISCO,CA,94103,668888,1,1.0,SAN FRANCISCO,518,,2013,7,1291,360,Active,,,http://www.redfin.com/CA/San-Francisco/537-Natoma-St-94103/unit-202/home/45393104,MLSListings,ML81859572,N,Y,37.779383,-122.408459
MLS Listing,,Condo/Co-op,900 Bush St #517,San Francisco,CA,94109,725000,1,2.0,San Francisco,831,,1982,7,872,1144,Active,,,http://www.redfin.com/CA/San-Francisco/900-Bush-St-94109/unit-517/home/978991,San Francisco MLS,421598743,N,Y,37.7898591,-122.4125833
MLS Listing,,Multi-Family (2-4 Unit),919 Vallejo St,San Francisco,CA,94133,2700000,11,2.0,San Francisco,6275,2148,1911,7,430,,Active,,,http://www.redfin.com/CA/San-Francisco/919-Vallejo-St-94133/home/1707163,San Francisco MLS,421598782,N,Y,37.7979281,-122.4124691
MLS Listing,,Single Family Residential,634 3rd Ave,San Francisco,CA,94118,2995000,5,2.5,San Francisco,,2996,1905,7,,,Active,October-5-2021 11:30 AM,October-5-2021 01:00 PM,http://www.redfin.com/CA/San-Francisco/634-3rd-Ave-94118/home/1461230,San Francisco MLS,421597846,N,Y,37.7766954,-122.4605458
MLS Listing,,Condo/Co-op,701 Minnesota St #115,San Francisco,CA,94107,949900,1,1.0,San Francisco,979,979,1900,7,970,508,Active,,,http://www.redfin.com/CA/San-Francisco/701-Minnesota-St-94107/unit-115/home/12396429,"bridgeMLS, Bay East AOR, or Contra Costa AOR",40968746,N,Y,37.7615332,-122.3899573
MLS Listing,,Condo/Co-op,1001 17th St #307,San Francisco,CA,94107,1165000,2,2.0,San Francisco,1059,9426,2016,7,1100,591,Active,,,http://www.redfin.com/CA/San-Francisco/1001-17th-St-94107/unit-307/home/109684860,San Francisco MLS,421598769,N,Y,37.7650727,-122.3940731
MLS Listing,,Multi-Family (2-4 Unit),1284 Dolores St,San Francisco,CA,94110,2199000,6,4.0,San Francisco,2880,2600,1890,7,764,,Active,,,http://www.redfin.com/CA/San-Francisco/1284-Dolores-St-94131/home/1006960,San Francisco MLS,421598766,N,Y,37.7488993,-122.425206
MLS Listing,,Multi-Family (2-4 Unit),116 - 118 Park St,San Francisco,CA,94110,1820000,4,2.0,San Francisco,2345,1500,1924,7,776,,Active,October-5-2021 02:30 PM,October-5-2021 04:00 PM,http://www.redfin.com/CA/San-Francisco/116-Park-St-94110/home/1735586,San Francisco MLS,421597824,N,Y,37.7364826,-122.4230328
MLS Listing,,Single Family Residential,994 Corbett Ave,San Francisco,CA,94131,2795000,3,3.0,San Francisco,3110,1790,1947,7,899,,Active,,,http://www.redfin.com/CA/San-Francisco/994-Corbett-Ave-94131/home/683771,San Francisco MLS,421598579,N,Y,37.7507019,-122.4442357
MLS Listing,,Single Family Residential,358 Maynard St,San Francisco,CA,94112,995000,2,2.0,San Francisco,1650,2391,1942,7,603,,Active,,,http://www.redfin.com/CA/San-Francisco/358-Maynard-St-94112/home/1511127,San Francisco MLS,421598087,N,Y,37.7300588,-122.4224789
MLS Listing,,Multi-Family (5+ Unit),1536 - 1552 Great Hwy,San Francisco,CA,94122,9950000,0,,San Francisco,19391,16121,1907,7,513,,Active,,,http://www.redfin.com/CA/San-Francisco/1536-Great-Hwy-94122/home/1324870,San Francisco MLS,421598730,N,Y,37.7576524,-122.5086263
MLS Listing,,Condo/Co-op,798 Stanyan St #7,San Francisco,CA,94117,1628000,2,2.0,San Francisco,1464,4369,2001,7,1112,685,Active,,,http://www.redfin.com/CA/San-Francisco/798-Stanyan-St-94117/unit-7/home/1224204,San Francisco MLS,421598649,N,Y,37.767502,-122.4528937
MLS Listing,,Condo/Co-op,216 Filbert St #2,San Francisco,CA,94133,775000,2,1.5,San Francisco,623,5953,1900,7,1244,311,Active,,,http://www.redfin.com/CA/San-Francisco/216-Filbert-St-94133/unit-2/home/12354772,San Francisco MLS,421598716,N,Y,37.80253,-122.4035614
MLS Listing,,Condo/Co-op,1726 Larkin St,San Francisco,CA,94109,1350000,3,2.0,San Francisco,1490,3598,1905,7,906,277,Active,,,http://www.redfin.com/CA/San-Francisco/1726-Larkin-St-94109/home/176545872,San Francisco MLS,421598711,N,Y,37.7938394,-122.4194435
MLS Listing,,Condo/Co-op,580 Hayes St #303,San Francisco,CA,94102,1895000,2,2.0,San Francisco,1321,12020,2018,7,1435,802,Active,,,http://www.redfin.com/CA/San-Francisco/580-Hayes-St-94102/unit-303/home/167260940,San Francisco MLS,421596907,N,Y,37.7767079,-122.4259839
MLS Listing,,Multi-Family (2-4 Unit),3630 - 3634 Scott St,San Francisco,CA,94123,2998000,5,3.0,San Francisco,3525,2504,1927,8,850,,Active,,,http://www.redfin.com/CA/San-Francisco/3630-Scott-St-94123/home/1522667,San Francisco MLS,421587640,N,Y,37.8035195,-122.4415624
MLS Listing,,Condo/Co-op,718 Long Bridge St #1300,San Francisco,CA,94158,1850000,2,2.0,San Francisco,1329,84866,2016,8,1392,1181,Active,,,http://www.redfin.com/CA/San-Francisco/718-Long-Bridge-St-94158/unit-1300/home/109685803,San Francisco MLS,421598625,N,Y,37.772,-122.393773
MLS Listing,,Condo/Co-op,400 Oak St #1,SAN FRANCISCO,CA,94102,786000,1,1.0,SAN FRANCISCO,600,,1900,8,1310,300,Active,,,http://www.redfin.com/CA/San-Francisco/400-Oak-St-94102/unit-1/home/28890102,MLSListings,ML81864321,N,Y,37.774782,-122.426094
MLS Listing,,Multi-Family (2-4 Unit),4355 Anza St,SAN FRANCISCO,CA,94121,1698000,2,2.5,SAN FRANCISCO,1975,2250,1917,8,860,,Active,,,http://www.redfin.com/CA/San-Francisco/4355-Anza-St-94121/home/176542700,MLSListings,ML81864320,N,Y,37.777544,-122.4950237
MLS Listing,,Condo/Co-op,655 Corbett Ave #506,San Francisco,CA,94114,698000,1,1.0,San Francisco,673,17101,1964,8,1037,556,Active,,,http://www.redfin.com/CA/San-Francisco/655-Corbett-Ave-94114/unit-506/home/1905289,San Francisco MLS,421596529,N,Y,37.7565294,-122.4430524
MLS Listing,,Multi-Family (2-4 Unit),1459 - 1461 17th Ave,San Francisco,CA,94122,1680000,4,3.0,San Francisco,3430,3000,1925,9,490,,Active,October-9-2021 01:00 PM,October-9-2021 03:00 PM,http://www.redfin.com/CA/San-Francisco/1459-17th-Ave-94122/home/631882,San Francisco MLS,421598617,N,Y,37.760676,-122.475105
MLS Listing,,Single Family Residential,1881 Oakdale Ave,San Francisco,CA,94124,1290000,8,3.0,San Francisco,2438,1642,2014,9,529,,Active,,,http://www.redfin.com/CA/San-Francisco/1881-Oakdale-Ave-94124/home/1807149,San Francisco MLS,421591870,N,Y,37.7374299,-122.395719
MLS Listing,,Condo/Co-op,1688 Pine St Unit E401,San Francisco,CA,94109,346593,2,2.0,San Francisco,889,35482,2016,9,390,,Active,October-13-2021 05:00 PM,October-13-2021 07:00 PM,http://www.redfin.com/CA/San-Francisco/1688-Pine-St-94109/unit-E401/home/144063589,San Francisco MLS,421595982,N,Y,37.7895497,-122.4233697
MLS Listing,,Single Family Residential,37 Sussex St,San Francisco,CA,94131,1895000,3,1.0,San Francisco,1189,1990,1951,9,1594,,Active,,,http://www.redfin.com/CA/San-Francisco/37-Sussex-St-94131/home/938107,San Francisco MLS,421596785,N,Y,37.7362095,-122.4335194
MLS Listing,,Multi-Family (2-4 Unit),1338 - 1340 42nd Ave,San Francisco,CA,94122,1195000,3,2.0,San Francisco,1452,3000,1908,9,823,,Active,,,http://www.redfin.com/CA/San-Francisco/1338-42nd-Ave-94122/home/108547189,San Francisco MLS,421596755,N,Y,37.7617282,-122.5013888
MLS Listing,,Multi-Family (2-4 Unit),77 - 81 Pleasant St,San Francisco,CA,94108,2995000,5,3.0,San Francisco,3315,1410,1907,9,903,,Active,,,http://www.redfin.com/CA/San-Francisco/77-Pleasant-St-94108/home/1029584,San Francisco MLS,421596893,N,Y,37.7927046,-122.4139666
MLS Listing,,Condo/Co-op,401 Harrison St Unit 8E,San Francisco,CA,94105,975000,1,1.0,San Francisco,710,,2014,9,1373,1270,Active,,,http://www.redfin.com/CA/San-Francisco/401-Harrison-St-94105/unit-8E/home/110263317,San Francisco MLS,421597929,N,Y,37.7863747,-122.3919931
MLS Listing,,Single Family Residential,100 Los Palmos Dr,San Francisco,CA,94127,1398000,3,1.5,San Francisco,,2962,1955,9,,,Active,,,http://www.redfin.com/CA/San-Francisco/100-Los-Palmos-Dr-94127/home/1686497,San Francisco MLS,421598527,N,Y,37.7353525,-122.4477386
MLS Listing,,Single Family Residential,15 Holyoke St,San Francisco,CA,94134,1395000,3,2.0,San Francisco,2010,3000,1912,9,694,,Active,,,http://www.redfin.com/CA/San-Francisco/15-Holyoke-St-94134/home/1503491,San Francisco MLS,421556507,N,Y,37.7307785,-122.4101145
MLS Listing,,Condo/Co-op,1439 Jefferson St,San Francisco,CA,94123,1895000,2,2.0,San Francisco,1583,3448,,9,1197,459,Active,October-5-2021 10:30 AM,October-5-2021 12:00 PM,http://www.redfin.com/CA/San-Francisco/1439-Jefferson-St-94123/home/40142266,BAREIS,421598047,N,Y,37.8055131,-122.436239
MLS Listing,,Single Family Residential,80 Thor Ave,San Francisco,CA,94131,5295000,4,3.5,San Francisco,4125,2657,2021,9,1284,,Active,October-7-2021 05:30 PM,October-7-2021 07:00 PM,http://www.redfin.com/CA/San-Francisco/80-Thor-Ave-94131/unit-V/home/102540178,San Francisco MLS,421590880,N,Y,37.7348583,-122.434371
MLS Listing,,Condo/Co-op,72 Townsend St #702,San Francisco,CA,94107,1495000,2,2.0,San Francisco,1212,,,9,1233,920,Active,,,http://www.redfin.com/CA/San-Francisco/72-Townsend-St-94107/unit-702/home/102283789,San Francisco MLS,421596459,N,Y,37.7814887,-122.3902958
MLS Listing,,Condo/Co-op,60 Rausch St #402,San Francisco,CA,94103,699000,1,1.0,San Francisco,767,,2002,9,911,519,Active,,,http://www.redfin.com/CA/San-Francisco/60-Rausch-St-94103/unit-402/home/12399471,San Francisco MLS,421598078,N,Y,37.7760722,-122.4096499
MLS Listing,,Single Family Residential,2840 Bryant St,San Francisco,CA,94110,1795000,2,2.0,San Francisco,2048,2500,1923,9,876,,Active,,,http://www.redfin.com/CA/San-Francisco/2840-Bryant-St-94110/home/886777,BAREIS,421598480,N,Y,37.7489529,-122.4089972
MLS Listing,,Multi-Family (2-4 Unit),184 Clipper St,SAN FRANCISCO,CA,94114,1549000,5,2.5,SAN FRANCISCO,2700,2047,1900,9,574,,Active,,,http://www.redfin.com/CA/San-Francisco/184-Clipper-St-94114/home/1205189,MLSListings,ML81862456,N,Y,37.74937,-122.429255
MLS Listing,,Condo/Co-op,2150 Grove St,San Francisco,CA,94117,1895000,3,2.0,San Francisco,2021,3000,1926,9,938,350,Active,October-5-2021 11:30 AM,October-5-2021 01:00 PM,http://www.redfin.com/CA/San-Francisco/2150-Grove-St-94117/home/918479,San Francisco MLS,421592512,N,Y,37.7742997,-122.4520855
MLS Listing,,Condo/Co-op,1201 California St #1403,San Francisco,CA,94109,2600000,3,3.0,San Francisco,1760,,1927,9,1477,2741,Active,,,http://www.redfin.com/CA/San-Francisco/1201-California-St-94109/unit-1403/home/12400948,San Francisco MLS,421585472,N,Y,37.790957,-122.4143844
MLS Listing,,Single Family Residential,323 Rutledge St,San Francisco,CA,94110,998000,3,1.0,San Francisco,1000,1873,1912,9,998,,Active,,,http://www.redfin.com/CA/San-Francisco/323-Rutledge-St-94110/home/1885469,San Francisco MLS,421598459,N,Y,37.7448037,-122.4098047
MLS Listing,,Single Family Residential,2502 Leavenworth St,SAN FRANCISCO,CA,94133,7898000,5,4.5,SAN FRANCISCO,4500,2500,1900,9,1755,,Active,,,http://www.redfin.com/CA/San-Francisco/2502-Leavenworth-St-94133/home/1698373,MLSListings,ML81864254,N,Y,37.8043491,-122.4182117
MLS Listing,,Condo/Co-op,81 Frank Norris St #505,San Francisco,CA,94109,795000,1,1.0,San Francisco,784,6909,1913,10,1014,648,Active,,,http://www.redfin.com/CA/San-Francisco/81-Frank-Norris-St-94109/unit-505/home/17306914,San Francisco MLS,421594479,N,Y,37.78908,-122.420053
MLS Listing,,Condo/Co-op,676 Alvarado St,San Francisco,CA,94114,1888000,3,3.0,San Francisco,1873,3200,1980,10,1008,225,Active,,,http://www.redfin.com/CA/San-Francisco/676-Alvarado-St-94114/home/1670076,San Francisco MLS,421598163,N,Y,37.7537435,-122.4360312
MLS Listing,,Single Family Residential,419 Baden St,SAN FRANCISCO,CA,94131,2800000,4,3.5,SAN FRANCISCO,2805,3125,1986,10,998,,Active,,,http://www.redfin.com/CA/San-Francisco/419-Baden-St-94131/home/1696824,MLSListings,ML81864232,N,Y,37.7335126,-122.4400776
MLS Listing,,Condo/Co-op,1466 Church St #3,San Francisco,CA,94131,675000,1,1.0,San Francisco,,,1922,10,,370,Active,October-5-2021 12:30 PM,October-5-2021 02:00 PM,http://www.redfin.com/CA/San-Francisco/1466-Church-St-94131/unit-3/home/45498868,San Francisco MLS,421597718,N,Y,37.7472895,-122.4272484
MLS Listing,,Condo/Co-op,137 Castro St,San Francisco,CA,94114,949000,1,1.0,San Francisco,851,2600,,10,1115,256,Active,October-5-2021 12:30 PM,October-5-2021 02:00 PM,http://www.redfin.com/CA/San-Francisco/137-Castro-St-94114/home/40628884,San Francisco MLS,421596714,N,Y,37.7668041,-122.4353327
MLS Listing,,Multi-Family (2-4 Unit),5524 Mission St,San Francisco,CA,94112,999999,3,1.0,San Francisco,1829,3192,1923,10,547,,Active,,,http://www.redfin.com/CA/San-Francisco/5524-Mission-St-94112/home/45495787,San Francisco MLS,421598369,N,Y,37.7124482,-122.4452309
MLS Listing,,Condo/Co-op,855 Folsom St #112,San Francisco,CA,94107,799000,1,1.5,San Francisco,880,55687,2001,10,908,715,Active,October-6-2021 12:30 PM,October-6-2021 02:00 PM,http://www.redfin.com/CA/San-Francisco/855-Folsom-St-94107/unit-112/home/12397498,San Francisco MLS,421575584,N,Y,37.7810381,-122.4022553
MLS Listing,,Condo/Co-op,2922 21st St,San Francisco,CA,94110,1575000,3,2.0,San Francisco,,2479,1904,10,,350,Active,October-5-2021 02:30 PM,October-5-2021 04:00 PM,http://www.redfin.com/CA/San-Francisco/2922-21st-St-94110/home/12354836,San Francisco MLS,421598191,N,Y,37.7575754,-122.4129001
MLS Listing,,Single Family Residential,619 28th Ave,San Francisco,CA,94121,1595000,3,2.5,San Francisco,6570,,1926,10,243,,Active,,,http://www.redfin.com/CA/San-Francisco/619-28th-Ave-94121/home/617931,San Francisco MLS,421598319,N,Y,37.7776148,-122.4881042
MLS Listing,,Single Family Residential,559 Joost Ave,San Francisco,CA,94127,979000,2,1.0,San Francisco,979,2500,1924,10,1000,,Active,,,http://www.redfin.com/CA/San-Francisco/559-Joost-Ave-94127/home/691976,San Francisco MLS,421598293,N,Y,37.7321612,-122.4480616
MLS Listing,,Condo/Co-op,181 Fremont Unit 62C,San Francisco,CA,94105,2450000,2,2.5,San Francisco,1262,,2018,10,1941,2678,Active,,,http://www.redfin.com/CA/San-Francisco/181-Fremont-St-94105/unit-62C/home/144231786,San Francisco MLS,421598190,N,Y,37.7898082,-122.3953565
MLS Listing,,Single Family Residential,158 Cervantes Blvd,San Francisco,CA,94123,4795000,4,3.5,San Francisco,3255,2500,,10,1473,,Active,,,http://www.redfin.com/CA/San-Francisco/158-Cervantes-Blvd-94123/home/558405,San Francisco MLS,421596480,N,Y,37.8047096,-122.4400567
MLS Listing,,Condo/Co-op,74 New Montgomery St #304,San Francisco,CA,94105,599000,0,1.0,San Francisco,498,17865,1914,10,1203,880,Active,,,http://www.redfin.com/CA/San-Francisco/74-New-Montgomery-St-94105/unit-304/home/17304419,San Francisco MLS,421597231,N,Y,37.7874649,-122.4012865
MLS Listing,,Condo/Co-op,1025 Minna St #5,San Francisco,CA,94103,895000,1,1.5,San Francisco,933,3921,2003,10,959,434,Active,,,http://www.redfin.com/CA/San-Francisco/1025-Minna-St-94103/unit-5/home/2065666,San Francisco MLS,421597805,N,Y,37.7734573,-122.4168843
MLS Listing,,Single Family Residential,142 Wawona St,San Francisco,CA,94127,1995000,4,1.5,San Francisco,2687,2931,1923,10,742,,Active,,,http://www.redfin.com/CA/San-Francisco/142-Wawona-St-94127/home/684483,San Francisco MLS,421573559,N,Y,37.7408112,-122.467445
MLS Listing,,Condo/Co-op,2205 Sacramento St #201,San Francisco,CA,94115,1595000,2,1.5,San Francisco,1582,8805,1908,10,1008,690,Active,,,http://www.redfin.com/CA/San-Francisco/2205-Sacramento-St-94115/unit-201/home/1914955,San Francisco MLS,421596780,N,Y,37.790137,-122.4295439
MLS Listing,,Condo/Co-op,1200 California St Unit 25A,San Francisco,CA,94109,2250000,1,2.0,San Francisco,1435,,1962,10,1568,2166,Active,,,http://www.redfin.com/CA/San-Francisco/1200-California-St-94109/unit-25A/home/12400737,San Francisco MLS,421597809,N,Y,37.7917486,-122.4144729
MLS Listing,,Condo/Co-op,480 10th Ave,San Francisco,CA,94118,1695000,3,3.0,San Francisco,1977,2996,1915,10,857,455,Active,,,http://www.redfin.com/CA/San-Francisco/480-10th-Ave-94118/home/175610356,San Francisco MLS,421598223,N,Y,37.7793636,-122.4683726
MLS Listing,,Single Family Residential,1918 Divisadero St,SAN FRANCISCO,CA,94115,4299950,4,3.5,SAN FRANCISCO,3360,2260,1910,10,1280,,Active,,,http://www.redfin.com/CA/San-Francisco/1918-Divisadero-St-94115/home/589409,MLSListings,ML81864164,N,Y,37.7874899,-122.4401107
MLS Listing,,Condo/Co-op,1336 Lake St,San Francisco,CA,94118,1575000,2,1.5,San Francisco,1400,2500,1941,10,1125,350,Active,,,http://www.redfin.com/CA/San-Francisco/1336-Lake-St-94118/home/606737,San Francisco MLS,421598165,N,Y,37.7865026,-122.4739302
MLS Listing,,Condo/Co-op,842 Bay St,San Francisco,CA,94109,899000,2,1.0,San Francisco,,3850,,10,,445,Active,October-5-2021 09:30 AM,October-5-2021 11:00 AM,http://www.redfin.com/CA/San-Francisco/842-Bay-St-94109/home/39739529,San Francisco MLS,421593415,N,Y,37.8048818,-122.4211047
MLS Listing,,Single Family Residential,1842 18th Ave,San Francisco,CA,94122,3795000,5,4.5,San Francisco,3578,5998,1923,10,1061,,Active,,,http://www.redfin.com/CA/San-Francisco/1842-18th-Ave-94122/home/2027073,San Francisco MLS,421596619,N,Y,37.7534462,-122.4750071
MLS Listing,,Condo/Co-op,1177 California St #1414,San Francisco,CA,94108,1645000,2,2.5,San Francisco,1399,,,10,1176,1623,Active,,,http://www.redfin.com/CA/San-Francisco/1177-California-St-94108/unit-1414/home/1459255,San Francisco MLS,421597785,N,Y,37.7909986,-122.4137649
MLS Listing,,Single Family Residential,250 Edgewood Ave,SAN FRANCISCO,CA,94117,3999950,4,4.5,SAN FRANCISCO,2766,3937,1908,10,1446,,Active,,,http://www.redfin.com/CA/San-Francisco/250-Edgewood-Ave-94117/home/671540,MLSListings,ML81864149,N,Y,37.761521,-122.454625
MLS Listing,,Condo/Co-op,858 Capp St #8,San Francisco,CA,94110,1899000,3,3.0,San Francisco,1638,,2021,10,1159,507,Active,October-5-2021 02:30 PM,October-5-2021 03:30 PM,http://www.redfin.com/CA/San-Francisco/858-Capp-St-94110/unit-8/home/175168197,San Francisco MLS,421598164,N,Y,37.7529271,-122.4176769
MLS Listing,,Single Family Residential,2240 27th Ave,San Francisco,CA,94116,1295000,3,1.0,San Francisco,1899,2996,1936,10,682,,Active,,,http://www.redfin.com/CA/San-Francisco/2240-27th-Ave-94116/home/1910855,San Francisco MLS,421596878,N,Y,37.7455871,-122.4842047
MLS Listing,,Condo/Co-op,1257 Dolores St Unit A,San Francisco,CA,94110,875000,1,1.0,San Francisco,860,,1910,10,1017,436,Active,,,http://www.redfin.com/CA/San-Francisco/1257-Dolores-St-94110/unit-A/home/1785240,San Francisco MLS,421597429,N,Y,37.749337,-122.424492
MLS Listing,,Condo/Co-op,2449 Chestnut St,San Francisco,CA,94123,1895000,2,2.0,San Francisco,1462,3408,1927,10,1296,350,Active,,,http://www.redfin.com/CA/San-Francisco/2449-Chestnut-St-94123/home/583613,San Francisco MLS,421597943,N,Y,37.7997663,-122.4437149
MLS Listing,,Condo/Co-op,563 Belvedere St,San Francisco,CA,94117,1498000,3,1.5,San Francisco,1378,2446,1909,10,1087,,Active,October-5-2021 12:30 PM,October-5-2021 02:00 PM,http://www.redfin.com/CA/San-Francisco/563-Belvedere-St-94117/home/602269,San Francisco MLS,421590035,N,Y,37.762386,-122.448196
MLS Listing,,Single Family Residential,368 Bradford St,San Francisco,CA,94110,1475000,4,3.0,San Francisco,1620,2099,1962,10,910,,Active,,,http://www.redfin.com/CA/San-Francisco/368-Bradford-St-94110/home/1264728,San Francisco MLS,421597968,N,Y,37.7372159,-122.4098932
MLS Listing,,Single Family Residential,22 Cutler Ave,San Francisco,CA,94116,1095000,3,2.0,San Francisco,1195,2003,1944,10,916,,Active,,,http://www.redfin.com/CA/San-Francisco/22-Cutler-Ave-94116/home/1921725,San Francisco MLS,421597966,N,Y,37.7372013,-122.5058392
MLS Listing,,Condo/Co-op,764 Clayton St,San Francisco,CA,94117,1995000,4,3.5,San Francisco,2255,2650,1895,10,885,391,Active,,,http://www.redfin.com/CA/San-Francisco/764-Clayton-St-94117/home/51565776,San Francisco MLS,421598050,N,Y,37.7677421,-122.4480369
MLS Listing,,Single Family Residential,519 Garfield St,San Francisco,CA,94132,995000,2,1.0,San Francisco,1145,2199,1949,10,869,,Active,,,http://www.redfin.com/CA/San-Francisco/519-Garfield-St-94132/home/823396,San Francisco MLS,421584344,N,Y,37.7195902,-122.4675938
